City,Country,LAT,LONG
Oakland,United States,37.7904,-122.2166
Oakville,Canada,43.45,-79.6833
Oaxaca de Juárez,Mexico,17.0606,-96.7253
Oberhausen,Germany,51.4967,6.8706
Obihiro,Japan,42.9167,143.2
Obninsk,Russia,55.0931,36.6106
Oceanside,United States,33.2247,-117.3083
Odawara,Japan,35.25,139.15
Odense,Denmark,55.3958,10.3886
Odessa,Ukraine,31.8801,-102.3448
Odintsovo,Russia,55.6667,37.2667
Offenbach am Main,Germany,49.9994,8.2736
Ōgaki,Japan,35.3594,136.6129
Ogbomosho,Nigeria,8.1333,4.25
Ōita,Japan,33.2333,131.6067
Okara,Pakistan,30.8092,73.4536
Okayama,Japan,34.65,133.9167
Okazaki,Japan,34.9543,137.1744
Okene,Nigeria,7.55,6.2333
Okinawa,Japan,26.3342,127.8056
Oklahoma City,United States,35.4676,-97.5136
Oktyabrsky,Russia,53.1667,48.6667
Oldenburg,Germany,53.1439,8.2139
Oldham,United Kingdom,53.5444,-2.1169
Olinda,Brazil,-8,-34.8833
Olmaliq,Uzbekistan,40.85,69.6
Olomouc,Czech Republic,49.5939,17.2508
Olongapo,Philippines,14.83,120.28
Olsztyn,Poland,53.7778,20.4792
Omaha,United States,41.2627,-96.0529
Omdurman,Sudan,15.65,32.4833
Omsk,Russia,54.9833,73.3667
Ōmuta,Japan,33.0303,130.4458
Ongole,India,15.506,80.049
Onitsha,Nigeria,6.1667,6.7833
Ontario,United States,34.0393,-117.6064
Opole,Poland,50.6667,17.9333
Or Yehuda,Israel,32.0306,34.8533
Oradea,Romania,47.0722,21.9211
Oral,Kazakhstan,51.2225,51.3725
Oran,Algeria,35.6969,-0.6331
Orange,United States,33.8038,-117.8218
Ordos City,China,39.671257,109.860535
Ordu,Turkey,40.9833,37.8833
Örebro,Sweden,59.2739,15.2075
Orekhovo-Zuyevo,Russia,55.8,38.9667
Orenburg,Russia,51.7833,55.1
Orizaba,Mexico,18.85,-97.1
Orlando,United States,28.4773,-81.337
Orléans,France,47.9025,1.909
Ormoc,Philippines,11.0106,124.6075
Orsha,Belarus,54.5092,30.4258
Orsk,Russia,51.2,58.5667
Oruro,Bolivia,-17.9667,-67.1167
Oryol,Russia,#N/A,#N/A
Osaka,Japan,34.6939,135.5022
Osasco,Brazil,-23.5328,-46.7919
Osh,Kyrgyzstan,40.53,72.8
Oshawa,Canada,43.9,-78.85
Oshogbo,Nigeria,#N/A,#N/A
Osijek,Croatia,45.5556,18.6944
Oslo,Norway,59.9133,10.7389
Osmaniye,Turkey,37.075,36.25
Osnabrück,Germany,52.2833,8.05
Osorno,Chile,-40.5725,-73.1353
Ostrava,Czech Republic,49.8356,18.2925
Ōta,Japan,36.2911,139.3754
Otaru,Japan,43.1833,141
Ōtsu,Japan,35.0167,135.85
Ottawa,Canada,45.4247,-75.695
Ouagadougou,Burkina Faso,12.3686,-1.5275
Ouargla,Algeria,31.95,5.3167
Oujda,Morocco,#N/A,#N/A
Oulu,Finland,65.0142,25.4719
Ourense,Spain,42.3364,-7.8633
Overland,United States,38.6966,-90.3689
Oviedo,Spain,43.36,-5.845
Oxford,United Kingdom,51.75,-1.25
Oxnard,United States,34.1964,-119.1815
Oyama,Japan,36.3146,139.8002
Oyo,Nigeria,7.85,3.933
Ozamiz,Philippines,#N/A,#N/A
City,Country,#N/A,#N/A
Qā’em Shahr,Iran,36.4636,52.8581
Qamishli,Syria,#N/A,#N/A
Qarchak,Iran,35.4267,51.5842
Qazvin,Iran,36.2894,50.0086
Qianjiang,China,#N/A,#N/A
Qidong,China,#N/A,#N/A
Qingdao,China,36.0669,120.3827
Qingtongxia,China,#N/A,#N/A
Qingyang,China,24.7816,118.5517
Qingyuan,China,23.682,113.056
Qingzhou,China,36.6853,118.4796
Qinhuangdao,China,39.8882,119.5202
Qinyang,China,#N/A,#N/A
Qinzhou,China,21.981,108.654
Qiqihaer,China,#N/A,#N/A
Qitaihe,China,#N/A,#N/A
Qom,Iran,34.64,50.8764
Quanzhou,China,24.8744,118.6757
Quebec City,Canada,46.8139,-71.2081
Queimados,Brazil,#N/A,#N/A
Querétaro,Mexico,20.5875,-100.3928
Quetta,Pakistan,30.1833,67
Quevedo,Ecuador,-1.0333,-79.45
Quezon City,Philippines,14.65,121.0475
Qufu,China,35.5819,116.9862
Qui Nhon,Vietnam,#N/A,#N/A
Quilmes,Argentina,-34.7167,-58.2667
Quilpué,Chile,-33.05,-71.45
Quito,Ecuador,-0.22,-78.5125
Qujing,China,25.491,103.796
Quzhou,China,28.9702,118.8593
City,Country,#N/A,#N/A
Ma'anshan,China,31.669,118.507
Maastricht,Netherlands,50.85,5.6833
Maasin,Philippines,10.13,124.85
Mabalacat,Philippines,15.22,120.58
Macaé,Brazil,-22.3708,-41.7869
Macapá,Brazil,0.033,-51.05
Macau,Macau,22.2006,113.5461
Maceió,Brazil,-9.6658,-35.735
Machakos,Kenya,-1.5167,37.2667
Machala,Ecuador,-3.2667,-79.9667
Macheng,China,31.173,115.008
Machida,Japan,35.5542,139.4431
Machilipatnam,India,16.17,81.13
Madison,United States,43.0822,-89.393
Madiun,Indonesia,-7.63,111.5231
Madrid,Spain,40.4169,-3.7033
Madurai,India,9.9252,78.1198
Maebashi,Japan,36.3895,139.0634
Magadan,Russia,59.5667,150.8
Magangué,Colombia,9.25,-74.7667
Magdeburg,Germany,52.1317,11.6392
Magé,Brazil,-22.6528,-43.0408
Magelang,Indonesia,-7.4667,110.2167
Magnitogorsk,Russia,53.3833,59.0333
Mahabad,Iran,36.7678,45.7339
Mahbubnagar,India,16.7488,78.0035
Maicao,Colombia,11.3778,-72.2389
Maidstone,United Kingdom,51.272,0.529
Maiduguri,Nigeria,11.8333,13.15
Mainz,Germany,49.9994,8.2736
Makati,Philippines,#N/A,#N/A
Makhachkala,Russia,42.9667,47.4833
Makiivka,Ukraine,48.0556,37.9611
Malabo,Equatorial Guinea,3.7456,8.7744
Málaga,Spain,36.7194,-4.42
Malang,Indonesia,-7.98,112.62
Malappuram,India,11.042,76.0815
Mehsana,India,#N/A,#N/A
"Malasiqui, Pangasinan",Philippines,15.92,120.42
Malatya,Turkey,38.3486,38.3194
Malaybalay City,Philippines,8.1564,125.1333
Malayer,Iran,34.3,48.8178
Malegaon,India,20.55,74.55
"Malita, Davao del Sur",Philippines,6.4108,125.6144
Malmö,Sweden,55.6058,13.0358
Malolos City,Philippines,14.8433,120.8114
Manado,Indonesia,1.4931,124.8413
Managua,Nicaragua,12.1364,-86.2514
Manama,Bahrain,26.225,50.5775
Manaus,Brazil,-3.1189,-60.0217
Manavgat,Turkey,36.7833,31.4333
"Manchester, New Hampshire",United States,53.479,-2.2452
Manchester,United Kingdom,53.479,-2.2452
Mandalay,Myanmar,21.9831,96.0844
Mandaluyong City,Philippines,14.58,121.03
Mandaue City,Philippines,10.33,123.93
Mandya,India,12.52,76.9
Mangalore,India,12.8681,74.8425
Mangaung,South Africa,#N/A,#N/A
Mangora,Pakistan,#N/A,#N/A
Manila,Philippines,14.5958,120.9772
Manisa,Turkey,38.6144,27.4292
Manizales,Colombia,5.1,-75.55
Mannheim,Germany,49.4878,8.4661
Manta,Ecuador,-0.95,-80.7162
Manzhouli,China,49.598,117.379
Maoming,China,21.6627,110.9255
Maputo,Mozambique,-25.9667,32.5833
Mar del Plata,Argentina,-38,-57.55
Maraba,Brazil,-5.35,-49.1167
Maracaibo,Venezuela,10.6333,-71.6333
Maracanau,Brazil,-3.8667,-38.6333
Maracay,Venezuela,10.2469,-67.5961
Maradi,Niger,13.4833,7.1
Maraqeh,Iran,#N/A,#N/A
Marawi City,Philippines,8.0031,124.285
Mardan,Pakistan,34.2012,72.0258
Margilan,Uzbekistan,#N/A,#N/A
Maribor,Slovenia,46.5575,15.6456
"Marilao, Bulacan",Philippines,14.7581,120.9481
Marília,Brazil,-22.2139,-49.9458
Maringá,Brazil,-23.4,-51.9167
Mariupol,Ukraine,47.0958,37.5494
"Mariveles, Bataan",Philippines,14.43,120.48
Markham,Canada,43.8767,-79.2633
Marrakech,Morocco,31.63,-8.0089
Marseille,France,43.2964,5.37
Marvdasht,Iran,29.8786,52.8067
Masan,South Korea,35.1833,128.55
Masaya,Nicaragua,11.9667,-86.1
Maseru,Lesotho,-29.31,27.48
Mashhad,Iran,36.3264,59.5433
Masjed Soleyman,Iran,#N/A,#N/A
Matadi,Democratic Republic of the Congo,-5.8167,13.4833
"Matamoros, Tamaulipas",Mexico,25.533,-103.25
Matanzas,Cuba,23.0511,-81.5753
Mataró,Spain,41.5333,2.45
Mathura,India,27.4924,77.6737
"Mati, Davao Oriental",Philippines,6.9483,126.2272
Matsubara,Japan,34.5833,135.55
Matsudo,Japan,35.7876,139.9032
Matsue,Japan,35.4681,133.0486
Matsumoto,Japan,36.238,137.972
Matsusaka,Japan,#N/A,#N/A
Matsuyama,Japan,33.8333,132.7667
Maturín,Venezuela,9.75,-63.183
Mauá,Brazil,-23.6678,-46.4608
Maunath Bhanjan,India,#N/A,#N/A
Mawlamyaing (Moulmein),Myanmar,#N/A,#N/A
Mayagüez,Puerto Rico,18.2003,-67.1397
Maykop,Russia,44.6,40.0833
Mazari Sharif,Afghanistan,#N/A,#N/A
Mazatlán,Mexico,23.2167,-106.4167
Mazyr,Belarus,52.05,29.25
Mbabane,Swaziland,-26.3167,31.1333
Mbandaka,Democratic Republic of the Congo,0.0478,18.2558
Mbeya,Tanzania,-8.9,33.45
Mbour,Senegal,14.716677,-17.467686
Mbuji-Mayi,Democratic Republic of the Congo,-6.15,23.6
"McAllen, Texas",United States,26.2252,-98.2467
Mecca,Saudi Arabia,21.4225,39.8233
Medan,Indonesia,3.5894,98.6739
Medea,Algeria,36.2675,2.75
Medellín,Colombia,6.2308,-75.5906
Medina,Saudi Arabia,24.47,39.61
Medinipur,India,22.424,87.319
Meerut,India,28.98,77.71
Meihekou,China,42.5407,125.7107
Meizhou,China,24.289,116.122
Mejicanos,El Salvador,13.7333,-89.2167
Mekele,Ethiopia,13.4969,39.4769
Meknes,Morocco,33.895,-5.5547
Melbourne,Australia,-37.8142,144.9631
Melitopol,Ukraine,46.8489,35.3675
"Memphis, Tennessee",United States,35.1087,-89.9663
Mendoza,Argentina,-32.8833,-68.8167
Merca,Somalia,#N/A,#N/A
Mérida,Venezuela,20.97,-89.62
Mérida,Mexico,20.97,-89.62
Mersin,Turkey,36.8,34.6333
"Mesa, Arizona",United States,33.4015,-111.7178
"Mesquite, Texas",United States,32.7602,-96.5865
Messad,Algeria,#N/A,#N/A
Messina,Italy,38.1936,15.5542
Metepec,Mexico,19.2511,-99.6047
Metz,France,49.1203,6.1778
Mexicali,Mexico,32.6633,-115.4678
Mexico City,Mexico,19.4333,-99.1333
"Mexico, Pampanga",Philippines,15.07,120.72
Meycauayan City,Philippines,14.73,120.95
Mezhdurechensk,Russia,53.6864,88.0703
"Miami, Florida",United States,25.784,-80.2101
"Miami Gardens, Florida",United States,25.784,-80.2101
Mianyang,China,31.468,104.679
Miass,Russia,55,60.1
Michurinsk,Russia,52.8833,40.4833
Middlesbrough,United Kingdom,54.5767,-1.2355
"Midsayap, Cotabato",Philippines,7.19,124.53
Milagro,Ecuador,-2.1347,-79.5872
Milan,Italy,45.4669,9.19
Milton Keynes,United Kingdom,52.04,-0.76
Miluo,China,#N/A,#N/A
"Milwaukee, Wisconsin",United States,43.0642,-87.9675
Minatitlán,Mexico,17.9833,-94.55
"Minglanilla, Cebu",Philippines,10.245,123.7964
"Minneapolis, Minnesota",United States,44.9635,-93.2678
Minoh,Japan,#N/A,#N/A
Minsk,Belarus,53.9,27.5667
Mirpur Khas,Pakistan,25.525,69.0158
Mirzapur-cum-Vindhyachal,India,#N/A,#N/A
Misato,Japan,35.8301,139.8723
Mishan,China,45.5298,131.8466
Mishima,Japan,#N/A,#N/A
Miskolc,Hungary,48.0833,20.6667
Mississauga,Canada,43.6,-79.65
Misrata,Libya,#N/A,#N/A
Mitaka,Japan,#N/A,#N/A
Mito,Japan,36.3658,140.4712
Miyakonojo,Japan,31.7194,131.0617
Miyazaki,Japan,31.9078,131.4203
"Mobile, Alabama",United States,30.6782,-88.1162
Modena,Italy,44.6469,10.9256
"Modesto, California",United States,37.6375,-121.0028
Modinagar,India,#N/A,#N/A
Moers,Germany,51.4592,6.6197
Moga,India,30.822,75.174
Mogadishu,Somalia,2.0392,45.3419
Mogilev (Mahilyow),Belarus,#N/A,#N/A
Mogpo,South Korea,#N/A,#N/A
Mogi das Cruzes,Brazil,-23.5228,-46.1878
Mogi Guaçu,Brazil,-22.3719,-46.9419
Mombasa,Kenya,-4.05,39.6667
Monclova,Mexico,26.9103,-101.4222
Moncton,Canada,46.1328,-64.7714
Monrovia,Liberia,6.3133,-10.8014
Montería,Colombia,8.75,-75.8833
Monterrey,Mexico,25.6667,-100.3
Montes Claros,Brazil,-16.7306,-43.8639
Montevideo,Uruguay,-34.8836,-56.1819
"Montgomery, Alabama",United States,32.3482,-86.2668
Montpellier,France,43.6119,3.8772
Montreal,Canada,45.5089,-73.5617
Montreuil,France,48.8611,2.4436
Monywa,Myanmar,22.1083,95.1417
Monza,Italy,45.5836,9.2736
Moradabad,India,28.8319,78.7764
Moratuwa,Sri Lanka,6.7991,79.8767
Morelia,Mexico,19.7683,-101.1894
Morena,India,26.5,78
"Moreno Valley, California",United States,-8.1186,-35.0922
Moriguchi,Japan,34.7375,135.5642
Morioka,Japan,39.7021,141.1545
Morogoro,Tanzania,-6.8242,37.6633
Morvi,India,#N/A,#N/A
Moscow,Russia,55.7558,37.6172
Mossoró,Brazil,-5.1878,-37.3439
Mostaganem,Algeria,35.9333,0.0833
Mostar,Bosnia and Herzegovina,43.3436,17.8075
Móstoles,Spain,40.3333,-3.8667
Mosul,Iraq,36.34,43.13
Mönchengladbach,Germany,51.2,6.4333
M'Sila,Algeria,35.7019,4.5472
Mudanjiang,China,44.5514,129.6329
Mufulira,Zambia,-12.5356,28.2419
Mulhouse,France,47.75,7.34
Multan,Pakistan,30.1978,71.4697
Mumbai,India,19.0761,72.8775
Munger,India,#N/A,#N/A
Munich,Germany,48.1375,11.575
Muntinlupa City,Philippines,14.38,121.05
Murcia,Spain,37.9861,-1.1303
"Murfreesboro, Tennessee",United States,35.849,-86.4121
Muridke,Pakistan,31.802,74.255
Murmansk,Russia,68.9706,33.075
Murom,Russia,55.5667,42.0333
Muroran,Japan,42.3167,140.9667
Murwara,India,#N/A,#N/A
Musashino,Japan,35.7177,139.5661
Muscat,Oman,23.6139,58.5922
Mushin,Nigeria,6.5333,3.35
Mutare,Zimbabwe,-18.9667,32.6333
Muzaffargharh,Pakistan,#N/A,#N/A
Muzaffarnagar,India,29.482,77.7
Muzaffarpur,India,26.1225,85.3906
Mülheim an der Ruhr,Germany,51.4275,6.8825
Münster,Germany,51.9625,7.6256
Mwanza,Tanzania,-2.5167,32.9
Mykolaiv,Ukraine,46.975,31.995
Mymensingh,Bangladesh,24.7539,90.4031
Mysore,India,#N/A,#N/A
Mytho,Vietnam,#N/A,#N/A
Mytishchi,Russia,55.9167,37.7667
City,Country,#N/A,#N/A
Rabat,Morocco,34.0209,-6.8416
Rạch Giá,Vietnam,10.0167,105.0833
Radom,Poland,51.4036,21.1567
Raebareli,India,#N/A,#N/A
Rahim Yar Khan,Pakistan,#N/A,#N/A
Raichur,India,16.2,77.37
Raiganj,India,25.62,88.12
Raipur,India,21.2444,81.6306
Rajahmundry,India,16.98,81.78
Rajapalayam,India,#N/A,#N/A
Rajkot,India,22.3,70.7833
Rajnandgaon,India,#N/A,#N/A
Rajshahi,Bangladesh,24.3667,88.6
Raleigh,United States,35.8324,-78.6429
Ramadi,Iraq,#N/A,#N/A
Ramagundam,India,#N/A,#N/A
Ramat Gan,Israel,32.07,34.8236
Râmnicu Vâlcea,Romania,45.1047,24.3756
Rampur,India,28.8,79
Ranaghat,India,#N/A,#N/A
Rancagua,Chile,-34.1667,-70.75
Ranchi,India,23.36,85.33
Rancho Cucamonga,United States,34.1247,-117.5667
Rangpur,Bangladesh,25.75,89.2444
Raniganj,India,#N/A,#N/A
Rasht,Iran,37.2744,49.5889
Ratlam,India,23.334,75.037
Rourkela,India,#N/A,#N/A
Ravenna,Italy,44.4161,12.2017
Rawalpindi,Pakistan,33.6,73.0333
Rayong,Thailand,12.6742,101.2789
Reading,United Kingdom,51.4542,-0.9731
Recife,Brazil,-8.05,-34.9
Recklinghausen,Germany,51.585,7.1619
Regensburg,Germany,49.0167,12.0833
Reggio Calabria,Italy,#N/A,#N/A
Regina,Canada,50.4547,-104.6067
Rehovot,Israel,31.8969,34.8167
Reims,France,49.2628,4.0347
Relizane,Algeria,35.7333,0.55
Remscheid,Germany,51.1833,7.2
Rennes,France,48.1147,-1.6794
Reno,United States,39.5497,-119.8483
Renqiu,China,38.686,116.084
Resende,Brazil,-22.4689,-44.4469
Resistencia,Argentina,-27.4514,-58.9867
Reutlingen,Germany,48.4833,9.2167
Rewa,India,24.53,81.3
Reykjavík,Iceland,64.1467,-21.94
Reynosa,Mexico,26.0922,-98.2778
Ribeirão das Neves,Brazil,-19.7669,-44.0869
Ribeirão Pires,Brazil,-23.7153,-46.4194
Ribeirão Preto,Brazil,-8.5139,-35.3778
Richmond Hill,Canada,43.8667,-79.4333
Richmond,Canada,37.5295,-77.4756
Richmond,United States,37.5295,-77.4756
Riga,Latvia,56.9489,24.1064
Rijeka,Croatia,45.3272,14.4411
Rimini,Italy,44.0594,12.5683
Rio Branco,Brazil,-9.9747,-67.81
Rio Claro,Brazil,-22.4108,-47.5608
Rio Cuarto,Argentina,#N/A,#N/A
Rio de Janeiro,Brazil,-22.9111,-43.2056
Rio Grande,Brazil,-32.035,-52.0986
Rio Verde,Brazil,-17.745,-50.9167
Riobamba,Ecuador,-1.6731,-78.6483
Rishon LeZion,Israel,#N/A,#N/A
Riverside,United States,33.9381,-117.3949
Rivne,Ukraine,50.6192,26.2519
Riyadh,Saudi Arabia,24.6333,46.7167
Rizhao,China,35.417,119.527
"Rochester, Minnesota",United States,43.168,-77.6162
"Rochester, New York",United States,43.168,-77.6162
Rockford,United States,42.2596,-89.064
Rodriguez,Philippines,14.72,121.12
Rohtak,India,28.8909,76.5796
Rome,Italy,41.8933,12.4828
Rondonópolis,Brazil,-16.4667,-54.6333
Rongcheng,China,26.218,104.103
Roodepoort,South Africa,-26.1625,27.8725
Rosario,Argentina,-32.9575,-60.6394
Rostock,Germany,54.0833,12.1333
Rostov-on-Don,Russia,#N/A,#N/A
Rotherham,United Kingdom,53.43,-1.357
Rotterdam,Netherlands,51.92,4.48
Rouen,France,49.4428,1.0886
Ruse,Bulgaria,43.8231,25.9539
Roxas,Philippines,10.3197,119.3408
Rubtsovsk,Russia,51.5167,81.2
Ruda Śląska,Poland,50.2628,18.8536
Rudny,Kazakhstan,#N/A,#N/A
Rui'an,China,27.7833,120.625
Ruichang,China,#N/A,#N/A
Russeifa,Jordan,#N/A,#N/A
Rustavi,Georgia,41.5436,45.0117
Ruzhou,China,#N/A,#N/A
Ryazan,Russia,54.63,39.7425
Rybinsk,Russia,58.05,38.8333
Rybnik,Poland,50.0833,18.55
Rzeszów,Poland,50.0333,22
City,Country,#N/A,#N/A
Saanich,Canada,48.484,-123.381
Saarbrücken,Germany,49.2333,7
Sabadell,Spain,41.5486,2.1075
Sabára,Brazil,#N/A,#N/A
Sabzewar,Iran,#N/A,#N/A
"Sacramento, California",United States,38.5677,-121.4685
Sadiqabad,Pakistan,#N/A,#N/A
Safi,Morocco,32.2833,-9.2333
Saga,Japan,33.2667,130.3
Sagamihara,Japan,35.5667,139.3667
Sagar,India,#N/A,#N/A
Sagay City,Philippines,10.9,123.42
Saguenay,Canada,48.4167,-71.0667
Saharanpur,India,29.964,77.546
Sahiwal,Pakistan,30.6611,73.1083
Saida,Algeria,34.8333,0.15
Saidpur,Bangladesh,25.8004,89
Saint Petersburg,Russia,59.9375,30.3086
Saint-Denis,Réunion,-20.8789,55.4481
Saint-Étienne,France,45.4347,4.3903
Saint John,Canada,45.2806,-66.0761
Saint Louis,Senegal,16.01793,-16.48962
Saint-Paul,Réunion,#N/A,#N/A
Saitama,Japan,35.8614,139.6456
"Sakai, Osaka",Japan,34.5733,135.4831
Sakata,Japan,38.9145,139.8364
"Sakura, Chiba",Japan,35.7167,140.2167
Salamanca,Mexico,20.5703,-101.1972
Salamanca,Spain,20.5703,-101.1972
Salavat,Russia,53.3667,55.9333
Salé,Morocco,#N/A,#N/A
"Salem, Oregon",United States,11.65,78.15
Salem,India,11.65,78.15
Salerno,Italy,40.6806,14.7594
Salihorsk,Belarus,52.8,27.5333
"Salinas, California",United States,36.6883,-121.6317
"Salt Lake City, Utah",United States,41.9761,2.7881
Salta,Argentina,-24.7833,-65.4167
Saltillo,Mexico,25.4231,-100.9919
Salvador,Brazil,-12.9747,-38.4767
Salzburg,Austria,47.8,13.045
Salzgitter,Germany,52.15,10.3333
Samara,Russia,53.2028,50.1408
Samarinda,Indonesia,-0.5,117.1378
Samarkand,Uzbekistan,39.6547,66.9758
Sambalpur,India,21.47,83.97
Sambhal,India,28.58,78.55
Samsun,Turkey,41.2903,36.3336
"San Antonio, Texas",United States,13.3004,-4.9
"San Bernardino, California",United States,13.3004,-4.9
San Bernardo,Chile,-33.5833,-70.7
"San Buenaventura, California",United States,13.3004,-4.9
"San Carlos City, Negros Occidental",Philippines,13.3004,-4.9
"San Carlos City, Pangasinan",Philippines,13.3004,-4.9
San Cristóbal,Dominican Republic,7.7667,-72.2333
San Cristóbal de Las Casas,Mexico,13.3004,-4.9
"San Diego, California",United States,13.3004,-4.9
"San Fernando City, La Union",Philippines,13.3004,-4.9
"San Fernando City, Pampanga",Philippines,13.3004,-4.9
San Fernando del Valle de Catamarca,Argentina,13.3004,-4.9
"San Francisco, California",United States,13.3004,-4.9
San José,Costa Rica,9.9325,-84.08
"San Jose City, Nueva Ecija",Philippines,13.3004,-4.9
San Jose del Monte City,Philippines,13.3004,-4.9
"San Jose, California",United States,13.3004,-4.9
"San Jose, Occidental Mindoro",Philippines,13.3004,-4.9
"San Juan, Argentina",Argentina,13.3004,-4.9
"San Juan, Puerto Rico",Puerto Rico,13.3004,-4.9
"San Juan City, Metro Manila",Philippines,13.3004,-4.9
San Lorenzo,Paraguay,-25.34,-57.52
San Luis Potosí,Mexico,22.1511,-100.9761
San Luis,Argentina,-33.3,-66.3333
San Martin,El Salvador,13.3004,-4.9
"San Mateo, Rizal",Philippines,13.3004,-4.9
San Miguel,El Salvador,13.4814,-88.1775
San Miguel de Tucumán,Argentina,-26.8167,-65.2167
"San Miguel, Bulacan",Philippines,13.3004,-4.9
San Miguelito,Panama,9.033,-79.5
San Nicolás,Argentina,22.7819,-81.9069
San Nicolás de los Garzas,Mexico,13.3004,-4.9
San Pablo City,Philippines,13.3004,-4.9
San Pedro de Macoris,Dominican Republic,13.3004,-4.9
San Pedro Sula,Honduras,15.5,-88.0333
"San Pedro, Laguna",Philippines,13.3004,-4.9
San Rafael,Argentina,-34.6,-68.3333
San Salvador de Jujuy,Argentina,-24.1833,-65.3
San Salvador,El Salvador,13.6989,-89.1914
San Sebastián,Spain,14.5667,-91.65
Sana'a,Yemen,#N/A,#N/A
Sanandaj,Iran,35.3114,46.9961
Sancti Spíritus,Cuba,21.9339,-79.4439
Sanda,Japan,#N/A,#N/A
Sandakan,Malaysia,5.8333,118.1167
Sangli,India,16.853,74.583
Şanlıurfa,Turkey,37.1583,38.7917
Sanmenxia,China,34.7732,111.2004
Sanming,China,26.2634,117.6389
"Santa Ana, California",United States,17.486,120.4344
Santa Bárbara d'Oeste,Brazil,17.486,120.4344
"Santa Clara, California",United States,17.486,120.4344
Santa Clara,Cuba,22.4069,-79.9649
"Santa Clarita, California",United States,17.486,120.4344
Santa Coloma de Gramanet,Spain,17.486,120.4344
Santa Cruz de la Sierra,Bolivia,-17.7892,-63.1975
Santa Cruz de Tenerife,Spain,17.486,120.4344
Santa Cruz do Sul,Brazil,-29.7178,-52.4258
"Santa Cruz, Laguna",Philippines,17.486,120.4344
Santa Fe de Bogotá,Colombia,17.486,120.4344
Santa Fe,Argentina,-31.6333,-60.7
"Santa Luzia, Minas Gerais",Brazil,17.486,120.4344
"Santa Maria, California",United States,17.486,120.4344
"Santa Maria, Bulacan",Philippines,17.486,120.4344
Santa Marta,Colombia,11.2419,-74.2053
Santa Rita,Brazil,10.2003,-67.5514
"Santa Rosa, California",United States,17.486,120.4344
Santa Rosa City,Philippines,17.486,120.4344
Santander,Spain,43.4628,-3.805
"Santarém, Brazil",Brazil,-2.43,-54.72
Santiago,Chile,-33.4372,-70.6506
Santiago City,Philippines,-33.4372,-70.6506
Santiago de Cuba,Cuba,20.0217,-75.8294
Santiago de los Caballeros,Dominican Republic,-33.4372,-70.6506
Santiago del Estero,Argentina,-27.7833,-64.2667
Santipur,India,#N/A,#N/A
Santo André,Brazil,-23.6572,-46.5333
Santo Domingo de los Colorados,Ecuador,-0.2542,-79.1719
Santo Domingo,Dominican Republic,18.4667,-69.95
"Santo Tomas, Batangas",Philippines,#N/A,#N/A
Santos,Brazil,-23.9369,-46.325
Sanya,China,18.2533,109.5036
São Bernardo do Campo,Brazil,-23.7,-46.55
São Caetano do Sul,Brazil,-23.7,-46.55
São Carlos,Brazil,-22,-47.8908
São Gonçalo,Brazil,-22.8269,-43.0539
São João de Meriti,Brazil,#N/A,#N/A
São José de Ribamar,Brazil,-2.55,-44.05
São José do Rio Preto,Brazil,-22.1508,-42.9239
São José dos Campos,Brazil,-23.1789,-45.8869
São José dos Pinhais,Brazil,-25.535,-49.2058
São José,Brazil,-27.6,-48.6167
São Leopoldo,Brazil,-29.76,-51.1469
São Luís,Brazil,-2.5283,-44.3044
São Paulo,Brazil,-23.55,-46.6333
São Vicente,Brazil,-23.9633,-46.3922
Sapporo,Japan,43.0619,141.3544
Sapucaia do Sul,Brazil,-21.995,-42.9139
Saqez,Iran,#N/A,#N/A
Saraburi,Thailand,14.5286,100.9114
Sarajevo,Bosnia and Herzegovina,43.8564,18.4131
Saransk,Russia,54.1833,45.1833
Sarapul,Russia,56.4667,53.8
Saratov,Russia,51.5333,46.0167
Sar-e Pol,Afghanistan,#N/A,#N/A
Sargodha,Pakistan,32.0836,72.6711
Sari,Iran,#N/A,#N/A
"Sariaya, Quezon",Philippines,13.97,121.53
Sariwon,North Korea,38.5064,125.7597
Sasebo,Japan,33.18,129.715
Saskatoon,Canada,52.1333,-106.6833
Sassari,Italy,40.725,8.5586
Satna,India,24.6005,80.8322
Satu Mare,Romania,47.79,22.89
"Savannah, Georgia",United States,32.0286,-81.1821
Sayama,Japan,35.853,139.4122
Schwerin,Germany,53.6333,11.4167
"Scottsdale, Arizona",United States,33.6872,-111.8651
Seam Reab,Cambodia,#N/A,#N/A
Seattle,United States,47.6211,-122.3244
Sabha,Libya,#N/A,#N/A
Sekondi-Takoradi,Ghana,#N/A,#N/A
Seleyang Baru,Malaysia,#N/A,#N/A
Semarang,Indonesia,-6.99,110.4225
Semipalatinsk,Kazakhstan,#N/A,#N/A
Sendai,Japan,38.2682,140.8694
Seongnam,South Korea,#N/A,#N/A
Seoul,South Korea,37.56,126.99
Serampore,India,#N/A,#N/A
Seremban,Malaysia,2.7222,101.9417
Sergiyev Posad,Russia,56.315,38.1367
Serpukhov,Russia,54.9167,37.4
Serra,Brazil,-20.1289,-40.3078
Sertaozinho,Brazil,-21.1381,-47.9906
Sete Lagoas,Brazil,-19.4658,-44.2469
Setif,Algeria,36.19,5.41
Seto,Japan,35.2236,137.0842
Sevastopol,,44.605,33.5225
Severodvinsk,Russia,64.5667,39.8667
Seversk,Russia,56.6,84.85
Seville,Spain,#N/A,#N/A
Sfax,Tunisia,34.74,10.76
Shah Alam,Malaysia,3.0722,101.5167
Shahe,China,36.8549,114.5033
Shahjahanpur,India,#N/A,#N/A
Shahrak-e Gharb,Iran,#N/A,#N/A
Shahrekord,Iran,#N/A,#N/A
Shahrud,Iran,36.4133,54.9781
Shakhty,Russia,47.7,40.2333
Shanghai,China,31.2286,121.4747
Shangluo,China,#N/A,#N/A
Shangqiu,China,34.415,115.656
Shangrao,China,28.4551,117.9431
Shangzhi,China,45.2116,127.962
Shantou,China,23.354,116.682
Shanwei,China,22.7872,115.3756
Shaoguan,China,24.811,113.597
Shaowu,China,27.3403,117.4925
Shaoxing,China,30.0511,120.5833
Shaoyang,China,27.2395,111.4679
Sharjah,United Arab Emirates,25.3575,55.3908
Shchyolkovo,Russia,#N/A,#N/A
Sheberghan,Afghanistan,#N/A,#N/A
Sheffield,United Kingdom,53.3808,-1.4703
Sheikhu Pura,Pakistan,#N/A,#N/A
Sheopur,India,25.67,76.7
Shenyang,China,41.8025,123.4281
Shenzhen,China,22.5415,114.0596
Sherbrooke,Canada,45.4,-71.9
Shibin el-Kom,Egypt,#N/A,#N/A
Shihezi,China,44.3054,86.0804
Shihung,South Korea,#N/A,#N/A
Shijiazhuang,China,38.0425,114.51
Shikarpur,Pakistan,#N/A,#N/A
Shillong,India,25.5822,91.8944
Shimizu,Japan,43.0167,142.8833
Shymkent,Kazakhstan,42.3167,69.5958
Shimla,India,31.1033,77.1722
Shimoga,India,13.9333,75.5667
Shimonoseki,Japan,#N/A,#N/A
Shinyanga,Tanzania,-3.6619,33.4231
Shiraz,Iran,29.61,52.5425
Shishi City,China,24.7167,118.7
Shishou,China,#N/A,#N/A
Shivpuri,India,25.43,77.65
Shiyan,China,32.629,110.7987
Shizuishan,China,39.2333,106.769
Shizuoka,Japan,34.9756,138.3828
Shkodër,Albania,42.0681,19.5119
"Shreveport, Louisiana",United States,32.4653,-93.7955
Shuangcheng,China,45.3503,126.28
Shuangyashan,China,46.6762,131.1416
Shubra al Khaymah,Egypt,#N/A,#N/A
Shuozhou,China,39.3317,112.4329
Sialkote,Pakistan,#N/A,#N/A
Šiauliai,Lithuania,55.9333,23.3167
Sibiu,Romania,45.7928,24.1519
Sibu,Malaysia,2.2878,111.8308
Sidi-bel-Abbès,Algeria,#N/A,#N/A
Siegen,Germany,50.8833,8.0167
Sieverodonetsk,Ukraine,#N/A,#N/A
Siirt,Turkey,37.925,41.9458
Sikar,India,27.62,75.15
"Silang, Cavite",Philippines,14.2306,120.975
Silay City,Philippines,10.8,122.97
Silchar,India,24.82,92.8
Siliguri,India,#N/A,#N/A
Simferopol,,44.9519,34.1022
"Simi Valley, California",United States,#N/A,#N/A
Sincelejo,Colombia,9.295,-75.3961
Singapore,Singapore,1.3,103.8
Singkawang,Indonesia,0.9,108.9833
Sinuiji,North Korea,#N/A,#N/A
"Sioux Falls, South Dakota",United States,#N/A,#N/A
Siping,China,43.1668,124.3506
Sirjan,Iran,29.437,55.6802
Sirsa,India,29.5333,75.0167
Sitapur,India,27.57,80.66
Sittwe,Myanmar,20.167,92.785
Sivakasi,India,9.4533,77.8024
Sivas,Turkey,39.75,37.0167
Siverek,Turkey,37.75,39.3167
Skikda,Algeria,36.8667,6.9
Skopje,Macedonia,41.9961,21.4317
Sliven,Bulgaria,42.6833,26.3333
Slough,United Kingdom,51.5084,-0.5881
Sloviansk,Ukraine,48.8533,37.625
Słupsk,Poland,54.4658,17.0292
Smederevo,Serbia,44.6667,20.9333
Smolensk,Russia,54.7828,32.0453
Soacha,Colombia,4.5872,-74.2214
Sobral,Brazil,-3.6739,-40.2389
Sochi,Russia,43.5853,39.7203
Sofia,Bulgaria,42.7,23.33
Sogamoso,Colombia,5.7167,-72.9208
Soka,Japan,35.8254,139.8053
Solapur,India,17.68,75.92
Soledad,Colombia,10.9167,-74.75
Solihull,United Kingdom,52.413,-1.778
Solikamsk,Russia,59.6433,56.75
Solingen,Germany,51.1667,7.0833
Songkhla,Thailand,7.2061,100.5967
Songyuan,China,#N/A,#N/A
Sonipat,India,28.99,77.022
Sorocaba,Brazil,-23.5017,-47.4581
Sorsogon City,Philippines,12.9742,124.0058
Sosnowiec,Poland,50.2833,19.1333
Souk Ahras,Algeria,36.2864,7.9511
"South Bend, Indiana",United States,#N/A,#N/A
South Dum Dum,India,#N/A,#N/A
Southampton,United Kingdom,50.9025,-1.4042
Southend on Sea,United Kingdom,51.55,0.71
Soweto,South Africa,-26.2678,27.8585
Soyapango,El Salvador,13.7333,-89.15
Split,Croatia,43.51,16.44
"Spokane, Washington",United States,47.6671,-117.433
"Springfield, Illinois",United States,42.1155,-72.5395
"Springfield, Massachusetts",United States,42.1155,-72.5395
"Springfield, Missouri",United States,42.1155,-72.5395
Springs,South Africa,-26.2547,28.4428
Srinagar,India,34.09,74.79
St Helens,United Kingdom,#N/A,#N/A
"St Louis, Missouri",United States,#N/A,#N/A
"St Paul, Minnesota",United States,#N/A,#N/A
"St Petersburg, Florida",United States,#N/A,#N/A
St. Catharines,Canada,43.1833,-79.2333
St. John's,Canada,47.4817,-52.7971
Stakhanov,Ukraine,48.5681,38.6586
"Stamford, Connecticut",United States,41.1039,-73.5585
Stara Zagora,Bulgaria,42.4256,25.6344
Starsy Oskol,Russia,#N/A,#N/A
Stavanger,Norway,58.97,5.7314
Stavropol,Russia,45.05,41.9833
"Sterling Heights, Michigan",United States,39.0052,-77.405
Sterlitamak,Russia,53.6333,55.95
Stockholm,Sweden,59.3294,18.0686
Stockport,United Kingdom,53.4083,-2.1494
"Stockton, California",United States,37.9765,-121.3109
Stoke-on-Trent,United Kingdom,53,-2.1833
Strasbourg,France,48.5833,7.7458
Stuttgart,Germany,48.7775,9.18
Subotica,Serbia,46.1003,19.6656
Suceava,Romania,47.6514,26.2556
Sucre,Bolivia,-19.0475,-65.26
Suez,Egypt,29.9667,32.55
Suhaj,Egypt,26.55,31.7
Suihua,China,46.654,126.969
Suining,China,30.533,105.593
Suita,Japan,#N/A,#N/A
Suizhou,China,#N/A,#N/A
Sukabumi,Indonesia,-6.9181,106.9315
Sukkur,Pakistan,27.7061,68.8483
Sulamaniya,Iraq,#N/A,#N/A
Sullana,Peru,-4.9,-80.6833
Sultanbeyli,Turkey,40.9683,29.2617
"Sultan Kudarat, Maguindanao",Philippines,#N/A,#N/A
Sumaré,Brazil,-22.8219,-47.2669
Sumgait,Azerbaijan,#N/A,#N/A
Sumy,Ukraine,50.9119,34.8028
"Suncheon, South Korea",South Korea,34.9506,127.4875
Sunderland,United Kingdom,54.906,-1.381
Sundsvall,Sweden,62.4,17.3167
Sungai Petani,Malaysia,5.65,100.5
"Sunnyvale, California",United States,37.3836,-122.0255
Sunshine Coast,Australia,#N/A,#N/A
Suqian,China,33.9331,118.2831
Surabaya,Indonesia,-7.2458,112.7378
Surakarta,Indonesia,-7.5667,110.8167
Surat Thani,Thailand,9.1397,99.3306
Surat,India,21.1702,72.8311
Surgut,Russia,61.25,73.4333
Surigao City,Philippines,9.7897,125.4958
Surrey,Canada,49.19,-122.8489
Suzano,Brazil,-23.5428,-46.3108
Sutton Coldfield,United Kingdom,52.563,-1.822
"Suva, Fiji",Fiji,-18.1416,178.4419
Suwon,South Korea,37.2667,127.0167
"Suzhou, Anhui",China,33.6333,116.9683
"Suzhou, Jiangsu",China,33.6333,116.9683
Suzuka,Japan,34.882,136.5842
Swansea,United Kingdom,41.7571,-71.212
Swindon,United Kingdom,51.56,-1.78
Sydney,Australia,-33.8678,151.21
Syktyvkar,Russia,61.6667,50.8167
Syracuse,Italy,43.0407,-76.1437
"Syracuse, New York",United States,43.0407,-76.1437
Syzran,Russia,53.1667,48.4667
Szczecin,Poland,53.4325,14.5481
Szeged,Hungary,46.255,20.145
Székesfehérvár,Hungary,47.1956,18.4089
City,Country,#N/A,#N/A
Nabadwip,India,#N/A,#N/A
Naberezhnye Chelny,Russia,#N/A,#N/A
Nadiad,India,22.69,72.86
Naga,Philippines,10.22,123.75
Nagano,Japan,36.6486,138.1947
Nagaoka,Japan,37.4462,138.8512
Nagareyama,Japan,35.8563,139.9029
Nagasaki,Japan,32.7447,129.8736
Nagercoil,India,8.175,77.4306
Nagoya,Japan,35.1833,136.9
Nagpur,India,21.1497,79.0806
Naha,Japan,26.2122,127.6792
Naihati,India,22.89,88.42
Nairobi,Kenya,-1.2864,36.8172
Najaf,Iraq,#N/A,#N/A
Najafabad,Iran,32.6447,51.3603
Nakhodka,Russia,42.8167,132.8667
Nakhon Pathom,Thailand,13.8206,100.0625
Nakhon Ratchasima,Thailand,14.975,102.1
Nakhon Sawan,Thailand,15.7133,100.1353
Nakhon Si Thammarat,Thailand,8.4364,99.9631
Nakuru,Kenya,-0.3,36.0667
Nalchik,Russia,43.4833,43.6167
Namangan,Uzbekistan,41.0011,71.6683
Nam Định,Vietnam,20.42,106.1683
Nampo,North Korea,38.7333,125.4
Nampula,Mozambique,-15.1167,39.2667
Namur,Belgium,50.4667,4.8667
Nanchang,China,28.683,115.858
Nanchong,China,30.8372,106.1106
Nancy,France,48.6936,6.1846
Nanded,India,19.15,77.3
Nandyal,India,15.48,78.48
Nanjing,China,32.0608,118.7789
Nanning,China,22.8167,108.3275
Nanping,China,26.6418,118.1774
Nantes,France,47.2181,-1.5528
Nantong,China,31.981,120.894
Nanyang,China,32.9987,112.5292
Naperville,United States,41.748,-88.1659
Napier-Hastings,New Zealand,#N/A,#N/A
Naples,Italy,40.8333,14.25
Nara,Japan,34.6844,135.805
Narashino,Japan,35.6804,140.0265
Narayanganj,Bangladesh,23.62,90.5
Nasiriyah,Iraq,#N/A,#N/A
Nashik,India,#N/A,#N/A
Nashville,United States,36.1715,-86.7842
Nassau,Bahamas,25.0781,-77.3386
Nasugbu,Philippines,14.07,120.63
Natal,Brazil,-6.9838,-60.2699
Naucalpan,Mexico,#N/A,#N/A
Navapolatsk,Belarus,55.5333,28.65
Navoiy,Uzbekistan,40.0844,65.3792
Navotas,Philippines,14.6667,120.9417
Navsari,India,#N/A,#N/A
Nawabganj,Bangladesh,24.6,88.2667
Nawabshah,Pakistan,26.2442,68.41
Nazilli,Turkey,37.9125,28.3206
N'Djamena,Chad,12.11,15.05
Ndola,Zambia,-12.9689,28.6325
Neftekamsk,Russia,56.1417,54.4667
Nefteyugansk,Russia,61.0833,72.7
Neijiang,China,29.5802,105.058
Neiva,Colombia,2.9345,-75.2809
Nellore,India,14.45,79.99
Netanya,Israel,32.3286,34.8567
Neuquén,Argentina,-38.9525,-68.0642
Neuss,Germany,51.2,6.7
Nevinnomyssk,Russia,44.6333,41.9333
Navi Mumbai,India,#N/A,#N/A
New Delhi,India,28.6139,77.2089
New Haven,United States,41.3113,-72.9246
Noida,India,28.57,77.32
New Orleans,United States,30.0687,-89.9288
New York,United States,40.6943,-73.9249
Newark,United States,40.7245,-74.1725
Newcastle upon Tyne,United Kingdom,-27.7464,29.9328
Newcastle,Australia,-27.7464,29.9328
Newport,United Kingdom,51.5886,-2.9978
Neyagawa,Japan,#N/A,#N/A
Nishapur,Iran,#N/A,#N/A
Neyveli,India,11.6088,79.4994
Nha Trang,Vietnam,12.245,109.1917
Niamey,Niger,13.515,2.1175
Nice,France,43.7034,7.2663
Nicosia,Cyprus,35.1725,33.365
Niigata,Japan,37.9161,139.0364
Niihama,Japan,33.9667,133.2833
Niiza,Japan,35.7935,139.5653
Nijmegen,Netherlands,51.8475,5.8625
Nikopol,Ukraine,47.5667,34.4
Nilópolis,Brazil,#N/A,#N/A
Nîmes,France,43.8383,4.3597
Ningbo,China,29.8603,121.6245
Ningde,China,26.6662,119.5477
Niš,Serbia,43.3208,21.8958
Nishinomiya,Japan,#N/A,#N/A
Nishio,Japan,34.83,137.0697
Niterói,Brazil,-22.8833,-43.1036
Nizamabad,India,18.672,78.094
Nizhnevartovsk,Russia,60.95,76.6
Nizhnekamsk,Russia,55.6333,51.8167
Nizhny Novgorod,Russia,#N/A,#N/A
Nizhny Tagil,Russia,#N/A,#N/A
Nobeoka,Japan,32.5822,131.665
Noda,Japan,35.95,139.8667
Nogales,Mexico,31.3,-110.9333
Noginsk,Russia,64.4833,91.2333
Nonthaburi,Thailand,13.8667,100.5167
Norilsk,Russia,69.3333,88.2167
Norman,United States,35.2335,-97.3471
Norrköping,Sweden,58.6,16.2
North Las Vegas,United States,36.2883,-115.0888
Northampton,United Kingdom,52.2304,-0.8938
Norwalk,United States,33.9069,-118.0829
Norwich,United Kingdom,52.6286,1.2928
"Norzagaray, Bulacan",Philippines,14.92,121.05
Nossa Senhora do Socorro,Brazil,-10.855,-37.0592
Nottingham,United Kingdom,52.9561,-1.1512
Nouakchott,Mauritania,18.0858,-15.9785
Nova Friburgo,Brazil,-22.2819,-42.5311
Nova Iguaçu,Brazil,#N/A,#N/A
Novara,Italy,45.45,8.62
Novi Sad,Serbia,45.2542,19.8425
Novo Hamburgo,Brazil,-29.6778,-51.1308
Novocheboksarsk,Russia,56.1333,47.5
Novocherkassk,Russia,47.4222,40.0939
Novokuybyshevsk,Russia,53.1,49.9333
Novokuznetsk,Russia,53.7667,87.1333
Novomoskovsk,Russia,54.0833,38.2167
Novorossiysk,Russia,44.7167,37.7833
Novoshakhtinsk,Russia,47.7667,39.9167
Novosibirsk,Russia,55.05,82.95
Novotroitsk,Russia,51.2039,58.3114
Novy Urengoy,Russia,#N/A,#N/A
Noyabrsk,Russia,63.2,75.45
Nuevo Laredo,Mexico,27.4861,-99.5069
Nukus,Uzbekistan,42.4667,59.6
Numazu,Japan,35.0956,138.8634
Nuremberg,Germany,49.4539,11.0775
Nyala,Sudan,12.05,24.8833
Nyíregyháza,Hungary,47.9531,21.7271
City,Country,#N/A,#N/A
Waco,United States,31.5599,-97.1882
Wad Madani,Sudan,#N/A,#N/A
Wadhwan,India,#N/A,#N/A
Wafangdian,China,39.6271,121.9796
Wagga Wagga,Australia,-35.1189,147.3689
Wah Cantonment,Pakistan,#N/A,#N/A
Wakayama,Japan,34.2333,135.1667
Wałbrzych,Poland,50.7667,16.2833
Walsall,United Kingdom,52.58,-1.98
Wanzhou District,China,#N/A,#N/A
Warangal,India,17.9689,79.5941
Wardha,India,20.7417,78.6056
Warren,United States,42.4934,-83.027
Warrington,United Kingdom,53.39,-2.59
Warsaw,Poland,52.23,21.0111
"Washington, D.C.",United States,38.9047,-77.0163
Waterbury,United States,41.5582,-73.0361
Watford,United Kingdom,51.655,-0.3957
Weifang,China,36.708,119.162
Weihai,China,37.5133,122.1205
Weihui,China,#N/A,#N/A
Weinan,China,34.5206,109.471
Wellington,New Zealand,-41.2889,174.7772
Wendeng,China,#N/A,#N/A
Wenzhou,China,27.9938,120.6993
West Bromwich,United Kingdom,52.519,-1.995
West Covina,United States,34.0555,-117.9113
"West Jordan, Utah",United States,#N/A,#N/A
"West Valley City, Utah",United States,#N/A,#N/A
Westminster,United States,51.4947,-0.1353
Whitby,Canada,43.8833,-78.9417
Wichita Falls,United States,33.9072,-98.5291
Wichita,United States,37.6895,-97.3443
Wiesbaden,Germany,50.0825,8.24
Willemstad,Netherlands,12.108,-68.935
Windhoek,Namibia,-22.57,17.0836
Windsor,Canada,42.2833,-83
Winnipeg,Canada,49.8844,-97.1464
Winston-Salem,United States,36.1029,-80.261
Winterthur,Switzerland,47.4989,8.7286
Witten,Germany,51.4333,7.3333
Włocławek,Poland,52.6592,19.0681
Wolfsburg,Germany,52.4231,10.7872
Wollongong,Australia,-34.4331,150.8831
Wolverhampton,United Kingdom,52.5833,-2.1333
Wonju,South Korea,37.3417,127.9208
Wonsan,North Korea,39.1475,127.4461
Worcester,United States,42.2705,-71.8079
Wrocław,Poland,51.11,17.0325
Wu'an,China,36.697,114.204
Wuhai,China,39.655,106.794
Wuhan,China,30.5934,114.3046
Wuhu,China,31.3526,118.4331
Wuppertal,Germany,51.2667,7.1833
Wuwei,China,37.929,102.638
Wuxi,China,31.491,120.312
Wuxue,China,29.844,115.561
Wuyishan,China,27.7564,118.0353
Wuzhong,China,37.9978,106.1986
Wuzhou,China,23.4767,111.279
Würzburg,Germany,49.7833,9.9333
City,Country,#N/A,#N/A
Cabanatuan City,Philippines,15.4908,120.9678
Cabimas,Venezuela,10.4,-71.45
Cabo de Santo Agostinho,Brazil,#N/A,#N/A
Cabo Frio,Brazil,-22.8789,-42.0189
Cabuyao City,Philippines,14.275,121.125
Cachoeirinha,Brazil,-29.9508,-51.0939
Cachoeiro de Itapemirim,Brazil,-20.8489,-41.1128
Cadiz City,Philippines,10.95,123.3
Cádiz,Spain,36.535,-6.2975
Caen,France,49.1814,-0.3636
Cagayan de Oro,Philippines,8.48,124.65
Cagliari,Italy,39.2278,9.1111
Caguas,Puerto Rico,18.2319,-66.0388
Cainta,Philippines,14.57,121.12
Cairns,Australia,-16.92,145.78
Cairo,Egypt,30.0444,31.2358
Cajamarca,Peru,-7.1667,-78.5167
Calabar,Nigeria,4.9767,8.3383
Calais,France,50.9481,1.8564
Calama,Chile,-22.4667,-68.9333
Calamba City,Philippines,8.5583,123.6417
Calapan City,Philippines,13.414,121.18
Calbayog,Philippines,#N/A,#N/A
Calgary,Canada,51.05,-114.0667
Cali,Colombia,3.4206,-76.5222
Caloocan,Philippines,#N/A,#N/A
Camaçari,Brazil,-12.6978,-38.3239
Camagüey,Cuba,21.3839,-77.9075
Camaragibe,Brazil,#N/A,#N/A
Cambridge,United States,43.3972,-80.3114
Cambridge,Canada,43.3972,-80.3114
Cambridge,United Kingdom,43.3972,-80.3114
Campeche,Mexico,19.85,-90.5306
Cẩm Phả,Vietnam,21.0167,107.3167
Campina Grande,Brazil,-7.2306,-35.8811
Campinas,Brazil,-22.9058,-47.0608
Campo Grande,Brazil,-20.4839,-54.615
Campos dos Goytacazes,Brazil,-21.7539,-41.3239
Canberra,Australia,-35.2931,149.1269
Candelaria,Philippines,13.9311,121.4233
Cangzhou,China,38.3047,116.8387
Canoas,Brazil,-29.92,-51.18
Cần Thơ,Vietnam,10.0333,105.7833
Cape Breton,Canada,46.1389,-60.1931
Cape Coral,United States,26.6443,-81.9957
Cape Town,South Africa,-33.9253,18.4239
Cap-Haïtien,Haiti,19.76,-72.2
Caracas,Venezuela,10.4806,-66.9036
Carapicuíba,Brazil,-23.5192,-46.8358
Carcar,Philippines,10.12,123.63
Cardiff,United Kingdom,#N/A,#N/A
Cariacica,Brazil,-20.2639,-40.42
Carolina,Puerto Rico,18.4054,-65.9792
Carlisle,United Kingdom,54.8947,-2.9364
Carrefour,Haiti,18.5344,-72.4094
Carrollton,United States,32.989,-96.8999
Cartagena de Indias,Colombia,10.4,-75.5
Cartagena,Spain,10.4,-75.5
Cartago,Costa Rica,4.7,-75.9167
Cartago,Colombia,4.7,-75.9167
Caruaru,Brazil,-8.2828,-35.9758
Carúpano,Venezuela,10.6722,-63.2403
Casablanca,Morocco,33.5333,-7.5833
Cascavel,Brazil,-24.9556,-53.4553
Castanhal,Brazil,-1.2969,-47.9219
Castellón de la Plana,Spain,39.9831,-0.0331
Catanduva,Brazil,-21.1378,-48.9728
Catania,Italy,37.5,15.0903
Catia La Mar,Venezuela,10.6,-67.0333
Cauayan City,Philippines,#N/A,#N/A
Caucaia,Brazil,-3.7167,-38.65
Cavite City,Philippines,14.48,120.9
Caxias do Sul,Brazil,-29.1667,-51.1833
Caxias,Brazil,-4.8589,-43.3558
Cayenne,French Guiana,4.933,-52.33
Cebu City,Philippines,10.32,123.75
Cedar Rapids,United States,41.9662,-91.6783
Celaya,Mexico,20.5222,-100.8122
Chandannagar,India,22.87,88.38
Chandigarh,India,30.75,76.78
Chandler,United States,33.2825,-111.8514
Chandrapur,India,#N/A,#N/A
Changchun,China,43.897,125.326
Changde,China,29.031,111.699
Changji,China,26.9471,108.7524
Changsha,China,28.228,112.939
Changshi,China,#N/A,#N/A
Changwon,South Korea,35.2708,128.6631
Changzhi,China,36.195,113.117
Changzhou,China,31.811,119.974
Chaohu,China,#N/A,#N/A
Chaoyang,China,41.571,120.453
Chaozhou,China,23.658,116.622
Chapecó,Brazil,-27.0958,-52.6178
Chhapra,India,26.4005,85.3721
Charikar,Afghanistan,35.0131,69.1689
Charleroi,Belgium,50.4,4.4333
Charlotte,United States,35.2083,-80.8303
Chatham-Kent,Canada,#N/A,#N/A
Chattanooga,United States,35.066,-85.2481
Cheboksary,Russia,56.15,47.2333
Chelyabinsk,Russia,55.1547,61.3758
Chemnitz,Germany,50.8333,12.9167
Chengde,China,40.9604,117.93
Chengdu,China,30.66,104.0633
Chengzhou,China,#N/A,#N/A
Chennai,India,13.0825,80.275
Cheonan,South Korea,#N/A,#N/A
Cheongju,South Korea,36.6333,127.4833
Cherepovets,Russia,59.1167,37.9
Cherkasy,Ukraine,49.4444,32.0597
Cherkessk,Russia,44.2167,42.05
Chernihiv,Ukraine,51.4939,31.2947
Chernivtsi,Ukraine,48.3,25.9333
Cherthala,India,#N/A,#N/A
Chía,Colombia,4.85,-74.05
Chiang Mai,Thailand,18.7953,98.9986
Chiayi,Taiwan,23.48,120.4497
Chiba,Japan,35.6073,140.1064
Chibi City,China,#N/A,#N/A
Chicago,United States,41.8375,-87.6866
Chiclayo,Peru,-6.763,-79.8366
Chifeng,China,42.257,118.888
Chigasaki,Japan,35.3333,139.4
Chihuahua,Mexico,28.6369,-106.0769
Chikmagalur,India,13.313,75.737
Chillán,Chile,-36.6,-72.1167
Chilpancingo,Mexico,17.55,-99.5
Chimalhuacán,Mexico,19.4167,-98.9
Chimbote,Peru,-9.0745,-78.5936
Chinandega,Nicaragua,12.6167,-87.15
Chincha Alta,Peru,-13.45,-76.1333
Chingola,Zambia,-12.5333,27.85
Chiniot,Pakistan,31.7194,72.9842
Chirala,India,15.8246,80.3521
Chirchiq,Uzbekistan,41.4667,69.5833
Chishtian,Pakistan,29.8,72.8333
Chişinău,Moldova,#N/A,#N/A
Chita,Russia,52.05,113.4667
Chitradurga,India,#N/A,#N/A
Chittagong,Bangladesh,#N/A,#N/A
Chittoor,India,13.216,79.098
Chitungwiza,Zimbabwe,-17.9939,31.0481
Chizhou,China,30.6654,117.4916
Chlef,Algeria,36.1647,1.3317
Chōfu,Japan,#N/A,#N/A
Choloma,Honduras,15.6333,-88
Choluteca,Honduras,#N/A,#N/A
Chonburi,Thailand,#N/A,#N/A
Chongjin,North Korea,#N/A,#N/A
Chongqing,China,29.5637,106.5504
Chorzów,Poland,50.3,18.95
Christchurch,New Zealand,-43.531,172.6365
Chula Vista,United States,32.6281,-117.0144
Chuncheon,South Korea,37.8667,127.7333
Chungju,South Korea,36.9667,127.95
Chuxiong City,China,25.033,101.5459
Chuzhou,China,32.256,118.333
Cienfuegos,Cuba,22.1456,-80.4364
Cincinnati,United States,39.1413,-84.506
Cirebon,Indonesia,-6.7071,108.5574
Ciudad Apodaca,Mexico,25.7817,-100.1886
Ciudad Bolívar,Venezuela,8.1219,-63.55
Ciudad Acuña,Mexico,29.3242,-100.9317
Ciudad del Este,Paraguay,-25.5167,-54.6167
Ciudad Delgado,El Salvador,#N/A,#N/A
Ciudad Guayana,Venezuela,8.3667,-62.65
Ciudad Juárez,Mexico,#N/A,#N/A
Ciudad López Mateos,Mexico,19.55,-99.2833
Ciudad Losada,Venezuela,#N/A,#N/A
Ciudad Madero,Mexico,22.25,-97.8333
Ciudad Nezahualcóyotl,Mexico,19.4006,-99.0148
Ciudad Obregón,Mexico,27.4939,-109.9389
Ciudad Victoria,Mexico,23.7389,-99.1431
Cixi,China,#N/A,#N/A
Clarksville,United States,36.5692,-87.3413
Clearwater,United States,27.979,-82.7623
Clermont-Ferrand,France,45.7831,3.0824
Cleveland,United States,41.4764,-81.6805
Cluj-Napoca,Romania,46.7667,23.5833
Coacalco,Mexico,19.6333,-99.0931
Coatzacoalcos,Mexico,18.15,-94.4333
Cochabamba,Bolivia,-17.3883,-66.1597
Codó,Brazil,-4.455,-43.8858
Coimbatore,India,11.0167,76.9556
Coimbra,Portugal,40.2028,-8.4139
Colatina,Brazil,-19.5389,-40.6308
Colchester,United Kingdom,51.8917,0.903
Colima,Mexico,19.2433,-103.7247
Cologne,Germany,50.9364,6.9528
Colombo,Brazil,-25.2919,-49.2239
Colombo,Sri Lanka,6.9344,79.8428
Colón,Panama,13.7167,-89.3667
Colorado Springs,United States,38.8674,-104.7605
Columbia,United States,34.0378,-80.9036
Columbia,United States,34.0378,-80.9036
"Columbus, Georgia",United States,39.9862,-82.9855
"Columbus, Ohio",United States,39.9862,-82.9855
Comilla,Bangladesh,23.45,91.2
Comodoro Rivadavia,Argentina,-45.8647,-67.4808
Conakry,Guinea,9.5092,-13.7122
Concepción,Chile,-36.8282,-73.0514
Concord,United States,37.9722,-122.0016
Concordia,Argentina,-31.4,-58.0333
Constanţa,Romania,44.1667,28.6333
Constantine,Algeria,36.35,6.6
Contagem,Brazil,-19.9319,-44.0539
Copenhagen,Denmark,55.6761,12.5683
Copiapó,Chile,-27.3664,-70.3331
Coquimbo,Chile,-29.9531,-71.3433
Coquitlam,Canada,49.2839,-122.7919
Coral Springs,United States,26.2702,-80.2591
Corby,United Kingdom,52.4877,-0.7013
Córdoba,Argentina,-31.4167,-64.1833
Córdoba,Spain,-31.4167,-64.1833
Córdoba,Mexico,-31.4167,-64.1833
Cork,Ireland,51.8972,-8.47
Çorlu,Turkey,41.15,27.8
Coro,Venezuela,11.417,-69.67
Corona,United States,33.8616,-117.5649
Corpus Christi,United States,27.7254,-97.3767
Corrientes,Argentina,-27.4833,-58.8167
Çorum,Turkey,40.5455,34.957
Costa Mesa,United States,33.6667,-117.9135
Cotabato City,Philippines,7.22,124.25
Cotia,Brazil,-23.6042,-46.9194
Cotonou,Benin,6.3667,2.4333
Cottbus,Germany,51.7606,14.3342
Coventry,United Kingdom,52.4081,-1.5106
Craiova,Romania,44.3333,23.8167
Crato,Brazil,-7.4639,-63.04
Crawley,United Kingdom,51.1092,-0.1872
Criciúma,Brazil,-28.6775,-49.3697
Cuautitlán,Mexico,19.6833,-99.1833
Cuautla,Mexico,18.8167,-98.95
Cubatão,Brazil,-23.8953,-46.4256
Cúcuta,Colombia,7.8942,-72.5039
Cuddalore,India,11.75,79.75
Cuenca,Ecuador,-2.8974,-79.0045
Cuernavaca,Mexico,18.9186,-99.2342
Cuiabá,Brazil,-15.5958,-56.0969
Culiacán,Mexico,24.8069,-107.3939
Cumaná,Venezuela,10.4564,-64.1675
Curicó,Chile,-34.9833,-71.2333
Curitiba,Brazil,-25.4297,-49.2711
Cusco,Peru,-13.525,-71.9722
Cuttack,India,20.5236,85.7881
Częstochowa,Poland,50.8,19.1167
City,Country,#N/A,#N/A
Vadodara,India,22.3,73.2
Valdivia,Chile,-39.8139,-73.2458
Valencia,Spain,39.47,-0.3764
Valencia,Philippines,39.47,-0.3764
Valencia,Venezuela,39.47,-0.3764
Valenciennes,France,50.3581,3.5233
Valera,Venezuela,9.3206,-70.6078
Valladolid,Spain,41.6528,-4.7236
Valle de Chalco,Mexico,-2.95,-78.9833
Valledupar,Colombia,10.4833,-73.25
Vallejo,United States,38.1125,-122.2342
Valparai,India,#N/A,#N/A
Valparaíso,Chile,-33.0461,-71.6197
Valsad,India,20.61,72.926
Van,Turkey,38.4942,43.38
Vanadzor,Armenia,40.8128,44.4883
Vancouver,United States,49.25,-123.1
Vancouver,Canada,49.25,-123.1
Vantaa,Finland,60.2944,25.0403
Varamin,Iran,35.3508,51.6358
Varanasi,India,25.3189,83.0128
Varginha,Brazil,-21.5517,-45.43
Varna,Bulgaria,43.2167,27.9167
Várzea Grande,Brazil,-15.65,-56.1333
Västerås,Sweden,59.6161,16.5528
Vatakara,India,#N/A,#N/A
Vaughan,Canada,43.8333,-79.5
Velikiye Luki,Russia,56.3333,30.5333
Veliky Novgorod,Russia,#N/A,#N/A
Vellore,India,12.9165,79.1325
Venice,Italy,45.4375,12.3358
Veracruz,Mexico,19.1903,-96.1533
Vereeniging,South Africa,-26.6736,27.9319
Verona,Italy,45.4386,10.9928
Viamão,Brazil,-30.0808,-51.0228
Vicente López,Argentina,-34.5333,-58.475
Vicenza,Italy,45.55,11.55
Victoria de Las Tunas,Cuba,48.4283,-123.3647
Victoria,Canada,48.4283,-123.3647
Vienna,Austria,48.2083,16.3725
Vientiane,Laos,17.98,102.63
Vigo,Spain,42.2314,-8.7124
Vijayawada,India,16.5193,80.6305
Vila Nova de Gaia,Portugal,41.1333,-8.6167
Vila Velha,Brazil,-20.3364,-40.2936
Villa Nicolás Romero,Mexico,#N/A,#N/A
Villahermosa,Mexico,17.9892,-92.9281
Villavicencio,Colombia,4.15,-73.6333
Villeurbanne,France,45.7667,4.8803
Vilnius,Lithuania,54.6872,25.28
Viña del Mar,Chile,-33.0244,-71.5517
Vinh,Vietnam,18.6667,105.6667
Vinnytsia,Ukraine,49.2333,28.4833
Viranşehir,Turkey,37.2306,39.7653
Visakhapatnam,India,#N/A,#N/A
Vitebsk,Belarus,#N/A,#N/A
Vitória da Conquista,Brazil,-14.8658,-40.8389
Vitória de Santo Antão,Brazil,-8.1264,-35.3075
Vitória,Brazil,-20.2889,-40.3083
Vitoria-Gasteiz,Spain,42.85,-2.6833
Vizianagaram,India,18.1159,83.406
Vladikavkaz,Russia,43.04,44.6775
Vladimir,Russia,56.1286,40.4058
Vladivostok,Russia,43.1333,131.9
Volgodonsk,Russia,47.5167,42.15
Volgograd,Russia,48.7086,44.5147
Vologda,Russia,59.2167,39.9
Volos,Greece,39.3667,22.9333
Volta Redonda,Brazil,-22.5228,-44.1039
Volzhsky,Russia,#N/A,#N/A
Voronezh,Russia,51.6717,39.2106
Votkinsk,Russia,57.05,54
Vũng Tàu,Vietnam,10.3833,107.1167
City,Country,#N/A,#N/A
Paarl,South Africa,-33.7242,18.9558
Pabna,Bangladesh,24.0167,89.2167
Pachuca,Mexico,20.1,-98.75
Padang,Indonesia,-0.95,100.3531
Paderborn,Germany,51.7181,8.7542
Padua,Italy,#N/A,#N/A
Pagadian City,Philippines,7.8272,123.4364
"Pago Pago, American Samoa",United States,#N/A,#N/A
Paita,Peru,-5.0911,-81.1064
Pakalongan,Indonesia,#N/A,#N/A
Pakan Baru,Indonesia,#N/A,#N/A
Pakpattan,Pakistan,30.3442,73.3839
Palakkad,India,#N/A,#N/A
Palangkaraya,Indonesia,-2.21,113.92
Palembang,Indonesia,-2.9861,104.7556
Palermo,Italy,2.8917,-75.4375
Pali,India,25.77,73.33
Palma de Mallorca,Spain,39.5667,2.65
Palmas,Brazil,-10.1844,-48.3336
"Palmdale, California",United States,34.5944,-118.1057
Palmira,Colombia,3.5833,-76.25
Palu,Indonesia,-0.895,119.8594
Pamplona,Spain,42.8167,-1.65
Panabo City,Philippines,7.3,125.68
Panama City,Panama,8.9833,-79.5167
Pančevo,Serbia,44.8706,20.6403
Panevėžys,Lithuania,55.7333,24.35
Panihati,India,22.69,88.37
Panipat,India,29.3875,76.97
Panjin,China,#N/A,#N/A
Panzhihua,China,#N/A,#N/A
Papeete,France,-17.5334,-149.5667
"Paradise, Nevada",United States,36.0872,-115.1355
Parakou,Benin,9.35,2.6167
Paramaribo,Suriname,5.8522,-55.2039
Paraná,Argentina,-31.7331,-60.5297
Paranaguá,Brazil,-25.5208,-48.5094
"Parang, Maguindanao",Philippines,7.3744,124.2686
Parbhani,India,19.27,76.78
Pardubice,Czech Republic,50.0386,15.7792
Paris,France,48.8567,2.3522
Parla,Spain,40.2372,-3.7742
"Pasadena, California",United States,29.6575,-95.1498
Patos de Minas,Brazil,-18.5817,-46.5147
Patna,India,25.594,85.1376
Patras,Greece,#N/A,#N/A
Patratu,India,#N/A,#N/A
Paulista,Brazil,-7.9408,-34.8728
Pavlodar,Kazakhstan,52.3,76.95
Pavlohrad,Ukraine,48.5167,35.8667
Pécs,Hungary,46.0711,18.2331
Pelotas,Brazil,-31.7719,-52.3425
Pematang Siantar,Indonesia,#N/A,#N/A
"Pembroke Pines, Florida",United States,42.0655,-70.8014
Penza,Russia,53.2,45
"Peoria, Arizona",United States,40.752,-89.6154
"Peoria, Illinois",United States,40.752,-89.6154
Pereira,Colombia,4.8143,-75.6946
Peristeri,Greece,38.0167,23.6833
Perm,Russia,58,56.3167
Perpignan,France,42.6986,2.8956
Perth,Australia,-31.9559,115.8606
Perugia,Italy,43.1122,12.3889
Pervouralsk,Russia,56.9167,59.9333
Pescara,Italy,42.4639,14.2142
Peshawar,Pakistan,34.0144,71.5675
Petah Tikva,Israel,#N/A,#N/A
Petaling Jaya,Malaysia,3.0972,101.6444
Petare,Venezuela,10.4833,-66.8167
Peterborough,United Kingdom,52.5661,-0.2364
Petrolina,Brazil,-9.3825,-40.5022
Petropavl,Kazakhstan,54.8833,69.1667
Petropavlovsk-Kamchatsky,Russia,#N/A,#N/A
Petrópolis,Brazil,-22.505,-43.1789
Petrozavodsk,Russia,61.7833,34.3333
Pforzheim,Germany,48.895,8.705
"Philadelphia, Pennsylvania",United States,40.0077,-75.1339
Phuket,Thailand,7.8881,98.3975
Phnom Penh,Cambodia,11.5694,104.9211
"Phoenix, Arizona",United States,33.5722,-112.0892
Phusro,India,23.77,85.99
Phyongsong,North Korea,#N/A,#N/A
Piatra Neamţ,Romania,46.9275,26.3708
Pietermaritzburg,South Africa,-29.6167,30.3833
Pikine,Senegal,14.75,-17.4
Pilibhit,India,28.6267,79.8058
Pinar del Río,Cuba,22.4122,-83.6719
Pindamonhangaba,Brazil,-22.9239,-45.4617
Pingdingshan,China,33.735,113.2999
Pingdu,China,36.7769,119.9884
Pingliang,China,35.5424,106.6649
Pingxiang,China,27.659,113.887
Pinhais,Brazil,#N/A,#N/A
Pinsk,Belarus,52.1153,26.1031
Piracicaba,Brazil,-22.7253,-47.6492
Piraeus,Greece,37.943,23.6469
Pir Mahal,Pakistan,#N/A,#N/A
Piteşti,Romania,44.8606,24.8678
"Pittsburgh, Pennsylvania",United States,40.4397,-79.9763
Piura,Peru,-5.2,-80.6333
"Plano, Texas",United States,33.0502,-96.7486
Pleven,Bulgaria,43.4078,24.6203
Płock,Poland,52.55,19.7
Ploieşti,Romania,44.9411,26.0225
Plovdiv,Bulgaria,42.15,24.75
Plymouth,United Kingdom,50.3714,-4.1422
Plzeň,Czech Republic,49.7475,13.3775
Poços de Caldas,Brazil,-21.7878,-46.5608
Podgorica,Montenegro,42.4414,19.2628
Podolsk,Russia,55.4311,37.5456
Pohang,South Korea,36.0322,129.365
Pointe-Noire,Republic of the Congo,-4.7975,11.8503
Pollachi,India,10.659,77.008
"Polomolok, South Cotabato",Philippines,6.22,125.07
Poltava,Ukraine,49.5894,34.5514
"Pomona, California",United States,34.0585,-117.7626
Ponce,United States,18.0127,-66.6212
Pondicherry,India,#N/A,#N/A
Ponta Grossa,Brazil,-25.0994,-50.1583
Pontianak,Indonesia,-0.0206,109.3414
Poole,United Kingdom,50.7167,-1.9833
Popayán,Colombia,2.4542,-76.6092
"Porac, Pampanga",Philippines,15.0719,120.5419
Porbandar,India,21.6417,69.6293
Port Elizabeth,South Africa,#N/A,#N/A
Port Harcourt,Nigeria,4.8242,7.0336
Port Louis,Mauritius,-20.1644,57.5042
Port Moresby,Papua New Guinea,-9.4789,147.1494
Port Said,Egypt,31.2625,32.3061
Port Sudan,Sudan,19.6167,37.2167
Port-au-Prince,Haiti,18.5333,-72.3333
"Portland, Oregon",United States,45.5371,-122.65
Porto Alegre,Brazil,-30.0331,-51.23
Porto Novo,Benin,17.019,-25.064
Porto Velho,Brazil,-8.7619,-63.9039
Porto,Portugal,41.1621,-8.622
Portoviejo,Ecuador,-1.0561,-80.4553
Portsmouth,United Kingdom,50.8058,-1.0872
Posadas,Argentina,-27.3667,-55.9
Potosí,Bolivia,-19.5892,-65.7533
Potsdam,Germany,52.4,13.0667
Pouso Alegre,Brazil,-22.2281,-45.9336
Poza Rica de Hidalgo,Mexico,20.5333,-97.45
Poznań,Poland,52.4083,16.9336
Prague,Czech Republic,50.0875,14.4214
Praia Grande,Brazil,-24.0061,-46.4028
Praia,Cape Verde,14.918,-23.509
Prato,Italy,43.88,11.0983
Presidente Prudente,Brazil,-22.1256,-51.3889
Preston,United Kingdom,53.83,-2.735
Pretoria,South Africa,-25.7461,28.1881
Prijedor,Bosnia and Herzegovina,44.9808,16.7133
Priština,,#N/A,#N/A
Probolinggo,Indonesia,-7.75,113.2167
Proddatur,India,14.75,78.55
Prokopyevsk,Russia,53.8833,86.7167
"Providence, Rhode Island",United States,41.823,-71.4187
"Provo, Utah",United States,40.2457,-111.6457
Pskov,Russia,57.8167,28.3333
Pucallpa,Peru,-8.3833,-74.55
Puebla de Zaragoza,Mexico,19.0333,-98.1833
"Pueblo, Colorado",United States,38.2701,-104.6114
Puente Alto,Chile,-33.6167,-70.5667
Puerto Cabello,Venezuela,10.4667,-68.0167
Puerto Montt,Chile,-41.4667,-72.9333
Puerto Princesa City,Philippines,#N/A,#N/A
Puli Khumri,Afghanistan,23.9667,120.9667
Pune,India,18.5203,73.8567
Puno,Peru,-15.8433,-70.0236
Punta Arenas,Chile,-53.1667,-70.9333
Punto Fijo,Venezuela,11.7167,-70.1833
Puri,India,19.8,85.8167
Purnia,India,#N/A,#N/A
Putian,China,25.4526,119.0078
Puyang,China,35.7627,115.0292
Pyatigorsk,Russia,44.05,43.0667
Pyongyang,North Korea,39.0167,125.7475
City,Country,#N/A,#N/A
Kabankalan,Philippines,9.98,122.82
Kabul,Afghanistan,34.5253,69.1783
Kabwe,Zambia,-14.4333,28.45
Kadhimiya,Iraq,#N/A,#N/A
Kadoma,Japan,34.7333,135.5833
Kaduna,Nigeria,10.5167,7.4333
Kaesong,North Korea,37.9667,126.55
Kafr Dawar,Egypt,#N/A,#N/A
Kagoshima,Japan,31.6,130.55
Kahramanmaraş,Turkey,37.5833,36.9333
Kaifeng,China,#N/A,#N/A
Kaili,China,#N/A,#N/A
Kairouan,Tunisia,35.6772,10.1008
Kaiserslautern,Germany,49.4447,7.7689
Kaiyuan,China,36.0193,113.86
Kaiyuan,China,36.0193,113.86
Kakamigahara,Japan,35.3988,136.8484
Kakinada,India,16.9661,82.255
Kakogawa,Japan,#N/A,#N/A
Kaliningrad,Russia,54.7003,20.4531
Kalisz,Poland,51.7575,18.08
Kallithea,Greece,37.95,23.7
Kaluga,Russia,54.55,36.2833
Kalyan,India,19.2502,73.1602
Kamagaya,Japan,35.7768,140.0008
Kamakura,Japan,#N/A,#N/A
Kamarhati,India,22.6686,88.3704
Kamensk-Uralsky,Russia,#N/A,#N/A
Kamianets-Podilskyi,Ukraine,48.6833,26.5833
Kamoke,Pakistan,#N/A,#N/A
Kampala,Uganda,0.3136,32.5811
Kampong Cham,Cambodia,11.987,105.462
Kamptee,India,#N/A,#N/A
Kamyshin,Russia,50.0833,45.4
Kananga,Democratic Republic of the Congo,-5.897,22.4488
Kanazawa,Japan,36.5611,136.6564
Kanchipuram,India,#N/A,#N/A
Kanchrapara,India,22.9456,88.4332
Kandahar,Afghanistan,31.62,65.7158
Kandy,Sri Lanka,7.2964,80.635
Kanggye,Myanmar,40.9667,126.6
Kanhangad,India,#N/A,#N/A
Kannur,India,#N/A,#N/A
Kano,Nigeria,12,8.5167
Kanpur,India,26.4499,80.3319
Kansas City,United States,39.1238,-94.5541
Kansk,Russia,56.2,95.7167
Kaohsiung,Taiwan,22.615,120.2975
Kaolack,Senegal,14.1389,-16.0764
Karachi,Pakistan,24.86,67.01
Karaganda,Kazakhstan,#N/A,#N/A
Karaikkudi,India,10.0735,78.7732
Karaj,Iran,35.8272,50.9489
Karaman,Turkey,37.1819,33.2181
Karamay,China,45.5799,84.8892
Karbala,Iraq,#N/A,#N/A
Karimnagar,India,18.4386,79.1288
Kariya,Japan,34.9893,137.0021
Karlsruhe,Germany,49.0092,8.404
Karnal,India,29.686,76.989
Karur,India,10.9601,78.0766
Kashan,Iran,33.9825,51.4325
Kashgar,China,39.4681,75.9938
Kashihara,Japan,#N/A,#N/A
Kashipur,India,29.22,78.95
Kashiwa,Japan,35.8676,139.9758
Kassala,Sudan,15.45,36.4
Kassel,Germany,51.3158,9.4979
Kasuga,Japan,33.5333,130.4667
Kasugai,Japan,35.2475,136.9722
Kasukabe,Japan,35.9753,139.7523
Kasur,Pakistan,31.1167,74.45
Kathlehong,South Africa,#N/A,#N/A
Kathmandu,Nepal,27.71,85.32
Katihar,India,25.53,87.58
Katowice,Poland,50.2625,19.0217
Kaunas,Lithuania,54.8972,23.8861
Kawachinagano,Japan,34.4667,135.5667
Kawagoe,Japan,35.9251,139.4858
Kawaguchi,Japan,35.8077,139.7241
Kawanishi,Japan,#N/A,#N/A
Kawasaki,Japan,35.5167,139.7
Kayseri,Turkey,38.7225,35.4875
Kazan,Russia,55.7964,49.1089
Kecskemét,Hungary,46.9061,19.6897
Kediri,Indonesia,-7.8111,112.0047
Keelung,Taiwan,25.1333,121.7333
Kelowna,Canada,49.8881,-119.4956
Kemerovo,Russia,55.3667,86.0667
Kempton Park,South Africa,-26.1,28.2333
Kenitra,Morocco,34.25,-6.5833
Kerch,Ukraine,45.3619,36.4711
Kerman,Iran,36.7248,-120.0625
Kermanshah,Iran,34.3325,47.0933
Khabarovsk,Russia,48.4833,135.0833
Khairpur,Pakistan,#N/A,#N/A
Khammam,India,17.2473,80.1514
Khandwa,India,21.82,76.35
Khanewal,Pakistan,30.3,71.9333
Khanpur,Pakistan,28.65,70.68
Kharagpur,India,22.3302,87.3237
Kharkiv,Ukraine,49.9925,36.2311
Khartoum,Sudan,15.6,32.5
Khartoum North,Sudan,15.6333,32.6333
Khasavyurt,Russia,43.25,46.5833
Khayelitsha,South Africa,-34.0403,18.6778
Khenchela,Algeria,35.4167,7.1333
Kherson,Ukraine,46.6425,32.625
Khimki,Russia,55.8892,37.445
Khmelnytskyi,Ukraine,49.4167,26.9871
Khomeini Shahr,Iran,#N/A,#N/A
Khon Kaen,Thailand,16.4333,102.8333
Khoramabad,Iran,#N/A,#N/A
Khoramshahr,Iran,#N/A,#N/A
Khouribga,Morocco,#N/A,#N/A
Khoy,Iran,#N/A,#N/A
Khulna,Bangladesh,22.8167,89.55
Kırıkkale,Turkey,39.8417,33.5139
Kızıltepe,Turkey,37.1939,40.5861
Kidapawan City,Philippines,7.0083,125.0894
Kiel,Germany,54.3233,10.1394
Kielce,Poland,50.8742,20.6333
Kiev,Ukraine,50.450001,30.523333
Kigali,Rwanda,-1.9439,30.0594
Kikwit,Democratic Republic of the Congo,-5.0386,18.8181
Kimberley,South Africa,-28.7383,24.7639
Kimhae,South Korea,35.2342,128.8811
Kingston,Jamaica,17.9714,-76.7931
Kingston,Canada,17.9714,-76.7931
Kingston upon Hull,United Kingdom,53.7444,-0.3325
Kinshasa,Democratic Republic of the Congo,-4.3219,15.3119
Kirkuk,Iraq,35.4667,44.3167
Kiryu,Japan,36.4052,139.4973
Kisangani,Democratic Republic of the Congo,0.5167,25.2
Kisarazu,Japan,35.376,139.9168
Kiselyovsk,Russia,#N/A,#N/A
Kishiwada,Japan,34.4667,135.3667
Kislovodsk,Russia,43.9167,42.7167
Kismayo,Somalia,#N/A,#N/A
Kisumu,Kenya,-0.0833,34.7667
Kitakyushu,Japan,33.8833,130.8833
Kitami,Japan,#N/A,#N/A
Kitchener,Canada,43.4186,-80.4728
Kitwe,Zambia,-12.8167,28.2
Klaipėda,Lithuania,55.7125,21.135
Klang,Malaysia,3.0333,101.45
Knoxville,United States,35.9692,-83.9496
Kobe,Japan,34.69,135.1956
Koblenz,Germany,50.3597,7.5978
Kochi,India,9.9312,76.2673
Kōchi,Japan,33.5589,133.5314
Kodaira,Japan,35.7285,139.4774
Kofu,Japan,35.6621,138.5682
Koganei,Japan,35.6995,139.503
Kohat,Pakistan,33.5833,71.4333
Kokand,Uzbekistan,#N/A,#N/A
Kokshetau,Kazakhstan,53.2833,69.3833
Kokubunji,Japan,35.7109,139.4622
Kolar,India,13.1333,78.1333
Kolhapur,India,16.6917,74.2333
Kolkata,India,22.5675,88.37
Kollam,India,#N/A,#N/A
Kolomna,Russia,55.0833,38.7833
Kolwezi,Democratic Republic of the Congo,-10.7167,25.4667
Komaki,Japan,35.291,136.9121
Komatsu,Japan,36.4083,136.4455
Komsomolsk-on-Amur,Russia,#N/A,#N/A
Konya,Turkey,37.8667,32.4833
Korba,India,22.3458,82.6963
Korhogo,Ivory Coast,9.4167,-5.6167
Koriyama,Japan,37.4004,140.3597
Korla,China,41.7259,86.1746
Korolyov,Russia,#N/A,#N/A
Koronadal City,Philippines,6.5,124.85
Koshigaya,Japan,35.8911,139.7909
Košice,Slovakia,48.7167,21.25
Kostanay,Kazakhstan,#N/A,#N/A
Kosti,Sudan,#N/A,#N/A
Kostroma,Russia,57.7681,40.9269
Koszalin,Poland,54.2,16.1833
Kota Bharu,Malaysia,6.1333,102.25
Kota Kinabalu,Malaysia,5.975,116.0725
Kota,India,25.18,75.83
Kothagudem,India,#N/A,#N/A
Kottayam,India,9.5916,76.5222
Kovrov,Russia,56.3683,41.3108
Kozhikode,India,#N/A,#N/A
Kragujevac,Serbia,44.0101,20.9172
Kraków,Poland,50.0614,19.9372
Kraljevo,Serbia,43.7236,20.6875
Kramatorsk,Ukraine,48.7392,37.5839
Krasnodar,Russia,45.0333,38.9667
Krasnoyarsk,Russia,56.0089,92.8719
Krasnyi Luch,Ukraine,48.1333,38.9333
Krefeld,Germany,51.3333,6.5667
Kremenchuk,Ukraine,49.0631,33.4039
Krishnanagar,India,23.4,88.5
Kropyvnytskyi,Ukraine,48.5,32.2667
Kruševac,Serbia,43.5806,21.3306
Kryvyi Rih,Ukraine,47.91,33.39
Kuala Lumpur,Malaysia,3.1478,101.6953
Kuala Terengganu,Malaysia,5.3292,103.1361
Kuantan,Malaysia,3.8167,103.3333
Kuching,Malaysia,1.5575,110.3439
Kumagaya,Japan,36.1474,139.3886
Kumamoto,Japan,32.8031,130.7078
Kumasi,Ghana,6.7,-1.625
Kumbakonam,India,10.9602,79.3845
Kunduz,Afghanistan,36.7286,68.8681
Kunming,China,25.0464,102.7094
Kunshan,China,#N/A,#N/A
Kuopio,Finland,62.8925,27.6783
Kurashiki,Japan,34.585,133.7722
Kure,Japan,34.2492,132.5658
Kurgan,Russia,55.4667,65.35
Kurnool,India,15.83,78.05
Kursk,Russia,51.7167,36.1833
Kurume,Japan,33.3192,130.5083
Kusatsu,Japan,35.0167,135.9667
Kushiro,Japan,42.9833,144.3833
Kut,Iraq,#N/A,#N/A
Kutaisi,Georgia,42.25,42.7
Kuwait City,Kuwait,29.3697,47.9783
Kuwana,Japan,35.0667,136.6833
Kütahya,Turkey,39.4167,29.9833
Kuytun,China,44.4264,84.9032
Kwekwe,Zimbabwe,-18.9167,29.8167
Kyoto,Japan,35.0117,135.7683
Kyzyl,Russia,51.7167,94.45
Kyzylorda,Kazakhstan,#N/A,#N/A
City,Country,#N/A,#N/A
Xalapa,Mexico,19.54,-96.9275
Xiamen,China,24.4796,118.0889
Xi'an,China,34.2611,108.9422
Xiangfan,China,#N/A,#N/A
Xiangtan,China,27.8313,112.9454
Xianning,China,#N/A,#N/A
Xiantao,China,30.328,113.443
Xianyang,China,34.3299,108.7088
Xiaogan,China,#N/A,#N/A
Xiaoshan,China,#N/A,#N/A
Xichang,China,27.8944,102.2644
Xilinhaote,China,#N/A,#N/A
Xingcheng,China,24.1347,115.73
Xinghua,China,#N/A,#N/A
Xingtai,China,37.0717,114.5048
Xingyi,China,25.092,104.8955
Xining,China,36.6224,101.7804
Xinji,China,37.943,115.218
Xintai,China,35.909,117.768
Xinxiang,China,#N/A,#N/A
Xinyang,China,32.149,114.091
Xinyi,China,22.3549,110.9468
Xinyu,China,27.8186,114.9167
Xinzhou,China,38.416,112.734
Xochimilco,Mexico,#N/A,#N/A
Xuancheng,China,#N/A,#N/A
Xuchang,China,#N/A,#N/A
City,Country,#N/A,#N/A
Ta’if,Saudi Arabia,#N/A,#N/A
Tabaco City,Philippines,13.35,123.73
Taboão da Serra,Brazil,-23.5328,-46.7994
Tabriz,Iran,38.0814,46.3006
Tacheng,China,46.7517,82.9869
Tachikawa,Japan,35.6942,139.4197
Tacloban City,Philippines,11.24,125
Tacna,Peru,-18.0147,-70.2489
"Tacoma, Washington",United States,47.2431,-122.4531
Taebaek,South Korea,37.1667,128.9833
Taganrog,Russia,47.2167,38.9167
Taguig City,Philippines,14.52,121.05
Tagum City,Philippines,7.4478,125.8078
Taian,China,#N/A,#N/A
Taichung,Taiwan,24.1439,120.6794
Tainan City,Taiwan,22.9833,120.1833
Taipei,Taiwan,25.0375,121.5625
Taiping,Malaysia,4.85,100.7333
Taiyuan,China,37.8704,112.5497
Taiz,Yemen,#N/A,#N/A
"Taizhou, Jiangsu",China,32.4567,119.9229
"Taizhou, Zhejiang",China,32.4567,119.9229
Tajimi,Japan,35.3328,137.1316
Takamatsu,Japan,34.35,134.05
Takaoka,Japan,36.7541,137.0257
Takarazuka,Japan,34.8114,135.3406
Takasaki,Japan,36.3219,139.0033
Takatsuki,Japan,34.8461,135.6175
Talara,Peru,-4.5799,-81.2719
"Talavera, Nueva Ecija",Philippines,15.5839,120.9189
Talca,Chile,-35.4269,-71.6656
Talcahuano,Chile,-36.7167,-73.1219
"Talisay City, Cebu",Philippines,10.25,123.83
"Tallahassee, Florida",United States,30.4551,-84.2527
Talsi,Latvia,57.2444,22.5867
Tallinn,Estonia,59.4372,24.7453
Taloqan,Afghanistan,#N/A,#N/A
Tama,Japan,35.6369,139.4463
Tamale,Ghana,9.4075,-0.8533
Tambov,Russia,52.7231,41.4539
"Tampa, Florida",United States,27.9945,-82.4447
Tampere,Finland,61.4981,23.76
Tampico,Mexico,22.2553,-97.8686
Tanauan City,Philippines,14.08,121.15
Tandil,Argentina,-37.3167,-59.1333
Tandoadam,Pakistan,#N/A,#N/A
Tanga,Tanzania,-5.0742,39.0992
Tangail,Bangladesh,24.2644,89.9181
Tangier,Morocco,35.7767,-5.8039
Tangshan,China,39.6294,118.1739
Tanjung Pinang,Indonesia,#N/A,#N/A
Tanta,Egypt,30.7833,31
"Tanza, Cavite",Philippines,14.3944,120.8531
Taonan,China,#N/A,#N/A
Tapachula,Mexico,14.9,-92.2667
Taranto,Italy,40.4711,17.2431
Tarapoto,Peru,-6.4833,-76.3667
Taraz,Kazakhstan,42.9,71.3667
Târgu-Mureş,Romania,46.5456,24.5625
Tarija,Bolivia,-21.5333,-64.7333
Tarlac City,Philippines,15.4869,120.59
Tarnów,Poland,50.0125,20.9886
Tarragona,Spain,41.1175,1.2528
Tarsus,Turkey,36.9165,34.8951
Tashkent,Uzbekistan,41.3111,69.2797
Taubaté,Burkina Faso,-23.025,-45.5556
Taunggyi,Myanmar,20.7836,97.0354
Tauranga,New Zealand,-37.6833,176.1667
"Taytay, Rizal",Philippines,14.5692,121.1325
Tbilisi,Georgia,41.7225,44.7925
Tebessa,Algeria,35.4,8.1167
Tegal,Indonesia,-6.8675,109.1375
Tegucigalpa,Honduras,14.1058,-87.2047
Tehran,Iran,35.6892,51.3889
Tehuacán,Mexico,18.4617,-97.3928
Teixeira de Freitas,Brazil,-17.5403,-39.7437
Tekirdağ,Turkey,40.9778,27.5153
Tel Aviv,Israel,#N/A,#N/A
Telford,United Kingdom,52.6766,-2.4469
Tembisa,South Africa,#N/A,#N/A
Temirtau,Kazakhstan,50.05,72.95
"Tempe, Arizona",United States,33.3881,-111.9319
Temuco,Chile,-38.7333,-72.6667
Tenali,India,16.239,80.645
Tengzhou,China,#N/A,#N/A
Teófilo Otoni,Brazil,-17.8578,-41.505
Tepic,Mexico,21.5083,-104.8931
Teresina,Brazil,-5.0949,-42.8042
Teresópolis,Brazil,-22.4119,-42.9658
Termez,Uzbekistan,#N/A,#N/A
Terni,Italy,42.5619,12.6414
Ternopil,Ukraine,49.5667,25.6
Terrassa,Spain,#N/A,#N/A
Tétouan,Monaco,35.5667,-5.3667
Thai Nguyen,Vietnam,#N/A,#N/A
Thalassery,India,#N/A,#N/A
Thane,India,19.1972,72.9722
Thanjavur,India,#N/A,#N/A
The Hague,Netherlands,52.08,4.31
Thessaloniki,Greece,40.6403,22.9347
Thiès,Senegal,14.7833,-16.9167
Thimphu,Bhutan,27.4722,89.6361
Thiruvananthapuram,India,8.5241,76.9366
"Thousand Oaks, California",United States,#N/A,#N/A
Thrissur,India,#N/A,#N/A
Thunder Bay,Canada,48.3822,-89.2461
Tianjin,China,39.1336,117.2054
Tianmen,China,#N/A,#N/A
Tianshui,China,#N/A,#N/A
Tiaret,Algeria,35.3667,1.3167
Tieli,China,46.95,128.05
Tieling,China,42.2237,123.726
Tijuana,Mexico,32.525,-117.0333
Tilburg,Netherlands,51.55,5.0833
Timişoara,Romania,45.7597,21.23
Timon,Brazil,-5.0939,-42.8369
Tirana,Albania,41.3289,19.8178
Tiruchchirappalli,India,#N/A,#N/A
Tirunelveli,India,#N/A,#N/A
Tirupati,India,13.65,79.42
Tiruppur,India,11.1085,77.3411
Tiruvannamalai,India,12.13,79.07
Titagarh,India,22.74,88.37
Tlalnepantla,Mexico,19.5367,-99.1947
Tlalpan,Mexico,#N/A,#N/A
Tlaquepaque,Mexico,20.6167,-103.3167
Tlaxcala,Mexico,19.3125,-98.24
Tlemoen,Algeria,#N/A,#N/A
Tobolsk,Russia,58.2,68.2667
Toda,Japan,35.8176,139.6779
Tokat,Turkey,40.3139,36.5542
Tokorozawa,Japan,35.7996,139.4686
Tokushima,Japan,34.0667,134.55
Tokuyama,Japan,#N/A,#N/A
Tokyo,Japan,35.6897,139.6922
"Toledo City, Cebu",Philippines,41.6638,-83.5827
"Toledo, Ohio",United States,41.6638,-83.5827
"Toledo, Paraná",Brazil,41.6638,-83.5827
Toluca,Mexico,19.2925,-99.6569
Tolyatti,Russia,53.5089,49.4222
Tomakomai,Japan,42.6333,141.6
Tomsk,Russia,56.5,84.9667
Tondabayashi,Japan,#N/A,#N/A
Tongchuan,China,34.897,108.945
Tonghua,China,#N/A,#N/A
Tongi,Bangladesh,#N/A,#N/A
Tongjiang,China,47.65,132.5
Tongliao,China,43.654,122.243
Tongling,China,#N/A,#N/A
Tongren,China,27.7316,109.1895
Tonk,India,26.1505,75.79
Toowoomba,Australia,-27.5667,151.95
"Topeka, Kansas",United States,39.0346,-95.6955
Toronto,Canada,43.7417,-79.3733
"Torrance, California",United States,33.8346,-118.3416
Torreón,Mexico,25.5419,-103.4083
Toruń,Poland,53.0222,18.6111
Tottori,Japan,35.5,134.2333
Touggourt,Algeria,33.1,6.0667
Toulon,France,43.1258,5.9306
Toulouse,France,43.6045,1.444
Tours,France,47.3936,0.6892
Townsville,Australia,-19.25,146.8167
Toyama,Japan,36.6959,137.2137
Toyohashi,Japan,34.7692,137.3915
Toyokawa,Japan,34.8268,137.3759
Toyonaka,Japan,34.7833,135.4667
Toyota,Japan,35.0824,137.1563
Trabzon,Turkey,41.005,39.7225
Trento,Italy,46.0667,11.1167
Trieste,Italy,45.6503,13.7703
"Tripoli, Lebanon",Lebanon,32.8872,13.1914
"Tripoli, Libya",Libya,32.8872,13.1914
Trois-Rivières,Canada,46.35,-72.55
Trondheim,Norway,63.4297,10.3933
Trujillo,Peru,-8.112,-79.0288
Tsu,Japan,34.7184,136.5057
Tsuchiura,Japan,36.0667,140.2
Tsukuba,Japan,#N/A,#N/A
Tsuruoka,Japan,38.7272,139.8267
"Tucson, Arizona",United States,32.1541,-110.8787
Tuguegarao City,Philippines,17.6133,121.7303
Tula,Russia,54.2,37.6167
"Tulsa, Oklahoma",United States,36.1283,-95.9042
Tulua,Colombia,4.0833,-76.2
Tulufan,China,#N/A,#N/A
Tumbes,Ecuador,-3.5708,-80.4597
Tumen,China,42.9667,129.85
Tumkur,India,13.34,77.1
Tunis,Tunisia,36.8064,10.1817
Tunja,Colombia,5.5333,-73.3667
Turgutlu,Turkey,38.5,27.7
Turhal,Turkey,40.39,36.09
Turin,Italy,45.0792,7.6761
Turkmenabat,Turkmenistan,39.0833,63.5667
Turku,Finland,60.45,22.2667
Turmero,Venezuela,10.2283,-67.4725
Tuticorin,India,8.7642,78.1348
Tuxtla Gutiérrez,Mexico,16.7528,-93.1167
Tuzla,Bosnia and Herzegovina,40.8161,29.3006
Tver,Russia,56.8625,35.9242
Tychy,Poland,50.1236,18.9867
Tyumen,Russia,57.15,65.5333
City,Country,#N/A,#N/A
Zaanstad,Netherlands,52.4333,4.8167
Zabol,Iran,31.0339,61.4878
Zabrze,Poland,50.3025,18.7781
Zacatecas,Mexico,22.7736,-102.5736
Zagazig,Egypt,#N/A,#N/A
Zagreb,Croatia,45.8131,15.9775
Zahedan,Iran,29.5025,60.8558
Zama,Japan,35.4833,139.4
Zamboanga City,Philippines,6.9042,122.0761
Zamora de Hidalgo,Mexico,19.9833,-102.2833
Zanjan,Iran,36.6789,48.5056
Zanzibar City,Tanzania,-6.165,39.199
Zaoyang,China,32.129,112.772
Zaozhuang,China,34.8109,117.3238
Zapopan,Mexico,20.7167,-103.4
Zaporizhia,Ukraine,#N/A,#N/A
Zaragoza,Spain,41.65,-0.8833
Zárate,Argentina,-34.0833,-59.0333
Zaria,Nigeria,11.0667,7.7
Zarqa,Jordan,#N/A,#N/A
Zelenodolsk,Russia,47.5658,33.6464
Zelenograd,Russia,#N/A,#N/A
Zenica,Bosnia and Herzegovina,44.2039,17.9078
Zhalantun,China,#N/A,#N/A
Zhangjiagang,China,#N/A,#N/A
Zhangjiajie,China,29.117,110.479
Zhangjiakou,China,40.769,114.886
Zhangshu,China,28.0546,115.5462
Zhangye,China,38.9248,100.4499
Zhangzhou,China,24.513,117.647
Zhanjiang,China,21.2701,110.3575
Zhaodong,China,46.051,125.962
Zhaoqing,China,23.05,112.4667
Zhaotong,China,27.338,103.717
Zheleznodorozhny,Russia,#N/A,#N/A
Zhengzhou,China,34.764,113.684
Zhenjiang,China,32.188,119.424
Zhongshan,China,22.517,113.3925
Zhoukou,China,33.625,114.6418
Zhoushan,China,29.9856,122.2074
Zhucheng,China,#N/A,#N/A
Zhuhai,China,22.2716,113.5769
Zhuji,China,29.7167,120.2333
Zhukovsky,Russia,#N/A,#N/A
Zhumadian,China,33.014,114.022
Zhuozhou,China,39.485,115.974
Zhuzhou,China,27.829,113.133
Zhytomyr,Ukraine,50.25,28.6667
Zibo,China,36.8138,118.055
Zielona Góra,Poland,51.9333,15.5
Zigong,China,29.339,104.779
Ziguinchor,Senegal,12.5833,-16.2667
Zinder,Niger,13.8053,8.9883
Zixing,China,#N/A,#N/A
Zlatoust,Russia,55.1667,59.6667
Zoetermeer,Netherlands,52.0667,4.5
Zrenjanin,Serbia,45.3833,20.3894
Zunyi,China,27.722,107.031
Zuwarah,Libya,32.9333,12.0833
Zürich,Switzerland,47.3744,8.5411
Zwickau,Germany,50.7167,12.5
Zwolle,Netherlands,52.5167,6.1
Zakopane,Poland,49.3,19.95
City,Country,#N/A,#N/A
Yachiyo,Japan,35.7224,140.0999
Yaizu,Japan,34.8669,138.3247
Yakeshi,China,49.286,120.712
Yakutsk,Russia,62.03,129.73
Yamagata,Japan,38.2554,140.3396
Yamaguchi,Japan,34.1781,131.4739
"Yamato, Kanagawa",Japan,32.6833,131.0333
Yamoussoukro,Ivory Coast,6.8161,-5.2742
Yamuna Nagar,India,#N/A,#N/A
Yan'an,China,36.65,109.494
Yancheng,China,33.3482,120.1626
Yangjiang,China,21.857,111.983
Yangon (Rangoon),Myanmar,#N/A,#N/A
Yangquan,China,37.8571,113.5804
Yangzhou,China,32.3912,119.4363
Yanji,China,42.9,129.5
Yantai,China,37.4646,121.4478
Yao,Japan,34.6269,135.601
Yaoundé,Cameroon,3.8667,11.5167
Yaroslavl,Russia,57.6167,39.85
Yatsushiro,Japan,#N/A,#N/A
Yavatmal,India,20.24,78.06
Yazd,Iran,31.8822,54.3397
Yekaterinburg,Russia,56.8356,60.6128
Yelets,Russia,52.6167,38.4667
Yenakiieve,Ukraine,48.2167,38.2
Yeosu,South Korea,34.7333,127.7333
Yerevan,Armenia,40.1814,44.5144
Yibin,China,28.752,104.643
Yichang,China,#N/A,#N/A
"Yichun, Heilongjiang",China,27.816,114.417
"Yichun, Jiangxi",China,27.816,114.417
Yidu,China,30.378,111.45
Yima,China,34.7469,111.875
Yinchuan,China,38.485,106.225
Yingcheng,China,24.21,113.401
Yingkou,China,40.625,122.219
Yingtan,China,28.2721,117.0395
Yining,China,#N/A,#N/A
Yiwu,China,29.3069,120.0753
Yixing,China,#N/A,#N/A
Yiyang,China,28.5549,112.356
Yizheng,China,#N/A,#N/A
Yogyakarta,Indonesia,-7.8014,110.3644
Yokkaichi,Japan,34.965,136.6244
Yokohama,Japan,35.4442,139.6381
Yokosuka,Japan,35.2813,139.6721
Yonago,Japan,35.4333,133.3333
Yong'an,China,25.942,117.365
Yongzhou,China,26.42,111.613
Yonkers,United States,40.9466,-73.8673
York,United Kingdom,39.9651,-76.7315
Yoshkar-Ola,Russia,56.65,47.8833
Yuanjiang,China,#N/A,#N/A
Yueyang,China,#N/A,#N/A
"Yulin, Guangxi",China,22.654,110.181
"Yulin, Shaanxi",China,22.654,110.181
Yumen,China,#N/A,#N/A
Yuncheng,China,35.0267,111.007
Yuxi,China,24.347,102.527
Yuyao,China,30.05,121.15
Yuzhno-Sakhalinsk,Russia,46.9667,142.7333
Yuzhou,China,#N/A,#N/A
City,Country,#N/A,#N/A
Faisalabad,Pakistan,31.4167,73.0911
Faizabad,India,#N/A,#N/A
Faridabad,India,28.4211,77.3078
Farrukhabad,India,27.39,79.581
Fatehpur,India,27.98,74.95
Fayetteville,United States,36.0714,-94.1661
Fayyum,Egypt,#N/A,#N/A
Feira de Santana,Brazil,-12.25,-38.95
Fengcheng,China,40.45,124.0667
Fenghua,China,#N/A,#N/A
Fergana,Uzbekistan,#N/A,#N/A
Ferrara,Italy,44.8333,11.6167
Ferraz de Vasconcelos,Brazil,-23.5411,-46.3689
Fes,Morocco,34.0433,-5.0033
Firozabad,India,#N/A,#N/A
Flint,United States,43.0236,-83.6921
Florence,Italy,43.7714,11.2542
Florencia,Colombia,1.6139,-75.6128
Florianópolis,Brazil,-27.6122,-48.4853
Floridablanca,Colombia,7.2167,-73.0667
Focşani,Romania,45.7,27.1797
Foggia,Italy,41.4642,15.5461
Fontana,United States,34.0968,-117.4599
Forlì,Italy,44.2333,12.05
Formosa,Argentina,-26.1833,-58.1833
Fort Collins,United States,40.5477,-105.0656
Fort Lauderdale,United States,26.1412,-80.1464
Fort Wayne,United States,41.0888,-85.1436
Fort Worth,United States,32.7817,-97.3474
Fortaleza,Brazil,-3.7275,-38.5275
Fort-de-France,Martinique,14.6,-61.0667
Foshan,China,23.0214,113.1216
Foz do Iguaçu,Brazil,-25.54,-54.5875
Franca,Brazil,-20.5389,-47.4008
Francisco Morato,Brazil,-23.2817,-46.7425
Francistown,Botswana,-21.1736,27.5125
Franco da Rocha,Brazil,-23.3286,-46.7244
Frankfurt am Main,Germany,50.1106,8.6822
Freetown,Sierra Leone,8.4844,-13.2344
Freiburg im Breisgau,Germany,47.995,7.85
Fremont,United States,37.5265,-121.9843
Fresno,United States,36.783,-119.7939
Fu'an,China,27.1,119.6333
Fuchu,Japan,35.6689,139.4776
Fuenlabrada,Spain,40.2833,-3.8
Fuji,Japan,35.1613,138.6763
Fujieda,Japan,#N/A,#N/A
Fujimi,Japan,35.8566,139.5492
Fujin City,China,47.25,132.0333
Fujinomiya,Japan,#N/A,#N/A
Fujisawa,Japan,35.35,139.4667
Fukuya,Japan,#N/A,#N/A
Fukui,Japan,36.0641,136.2196
Fukuoka,Japan,33.59,130.4017
Fukushima,Japan,37.7608,140.4747
Fukuyama,Japan,34.4858,133.3622
Fuling,China,#N/A,#N/A
Fullerton,United States,33.8841,-117.9279
Funabashi,Japan,#N/A,#N/A
Funchal,Portugal,32.65,-16.9167
Fushun,China,41.881,123.957
Fuxin,China,42.022,121.67
Fuyang,China,32.89,115.814
"Fuzhou, Fujian",China,27.949,116.358
"Fuzhou, Jiangxi",China,27.949,116.358
Fürth,Germany,49.4667,11
City,Country,#N/A,#N/A
Ube,Japan,33.9517,131.2467
Uberaba,Brazil,-19.7478,-47.9319
Uberlândia,Brazil,-18.9231,-48.2886
Ubon Ratchathani,Thailand,15.2281,104.8594
Udaipur,India,24.58,73.68
Udon Thani,Thailand,17.4167,102.75
Udupi,India,#N/A,#N/A
Ueda,Japan,36.4019,138.2491
Ufa,Russia,54.7261,55.9475
Uji,Japan,34.8844,135.7997
Ujjain,India,23.17,75.79
Ujung Pandang,Indonesia,#N/A,#N/A
Ukhta,Russia,63.5667,53.7
Ulanqab,China,#N/A,#N/A
Ulaanbaatar,Mongolia,47.9203,106.9172
Ulan Hot,China,#N/A,#N/A
Ulan-Ude,Russia,51.8333,107.6
Ulhasnagar,India,19.22,73.15
Ulm,Germany,48.4,9.9833
Ulsan,South Korea,35.55,129.3167
Ulyanovsk,Russia,54.3167,48.3667
Umeå,Sweden,63.825,20.2639
Umlazi,South Africa,#N/A,#N/A
Unnao,India,26.55,80.49
Uppsala,Sweden,59.8581,17.6447
Urasoe,Japan,26.2458,127.7219
Urawa,Japan,#N/A,#N/A
Urayasu,Japan,35.6539,139.9022
Urdaneta,Philippines,15.9761,120.5711
Urgench,Uzbekistan,#N/A,#N/A
Urmia,Iran,#N/A,#N/A
Uruapan,Mexico,19.4208,-102.0628
Uruguaiana,Brazil,-29.755,-57.0878
Ürümqi,China,43.8225,87.6125
Uşak,Turkey,38.6778,29.4042
Usolye-Sibirskoye,Russia,#N/A,#N/A
Ussuriysk,Russia,43.8,131.9667
Ust-Ilimsk,Russia,#N/A,#N/A
Ust-Kamenogorsk,Kazakhstan,#N/A,#N/A
Utrecht,Netherlands,52.0908,5.1217
Utsunomiya,Japan,36.5551,139.8826
Uzhhorod,Ukraine,48.6239,22.295
City,Country,#N/A,#N/A
Jabalpur,India,23.1667,79.9333
Jaboatao dos Guarapes,Brazil,-8.1803,-35.0014
Jacareí,Brazil,-23.3053,-45.9658
Jackson,United States,32.3157,-90.2125
Jacksonville,United States,30.3322,-81.6749
Jacobabad,Pakistan,28.2769,68.4514
Jaén,Spain,37.7667,-3.7711
Jaffna,Sri Lanka,9.6647,80.0167
Jaipur,India,26.9,75.8
Jakarta,Indonesia,-6.175,106.8275
Jalalabad,Afghanistan,35.88,74.493
Jalandhar,India,31.2569,75.4432
Jalgaon,India,21.004,75.568
Jalpaiguri,India,26.52,88.73
Jalna,India,19.8333,75.8833
Jamalpur,Bangladesh,24.9004,89.95
Jambi,Indonesia,-1.59,103.61
Jamnagar,India,22.47,70.07
Jamshedpur,India,22.7925,86.1842
Jaraguá do Sul,Brazil,-26.4833,-49.0667
Jaranwala,Pakistan,31.3333,73.4167
Jastrzębie Zdrój,Poland,#N/A,#N/A
Jaú,Brazil,-22.2958,-48.5578
Jaunpur,India,25.73,82.68
Jayapura,Indonesia,-2.533,140.717
Jeddah,Saudi Arabia,21.5433,39.1728
Jena,Germany,50.9272,11.5861
Jeongju,South Korea,#N/A,#N/A
Jeonju,South Korea,35.8167,127.15
Jequié,Brazil,-13.863,-40.0843
Jerez de la Frontera,Spain,36.6817,-6.1378
Jersey City,United States,40.7184,-74.0686
Jerusalem,Israel,31.7789,35.2256
Jessore,Bangladesh,23.1704,89.2
Jhang,Pakistan,#N/A,#N/A
Jhansi,India,25.4486,78.5696
Jhelum,Pakistan,32.9425,73.7256
Jiagedaqi,China,#N/A,#N/A
Jiamusi,China,46.8,130.319
Ji'an,China,27.0912,114.9668
Ji'an,China,27.0912,114.9668
Jiangmen,China,22.5789,113.0815
Jiangshan,China,28.7361,118.625
Jiangyin,China,31.839,120.295
Jiangyou,China,#N/A,#N/A
Jiaohe,China,#N/A,#N/A
Jiaojiang,China,#N/A,#N/A
Jiaozhou City,China,36.2647,120.0334
Jiaozuo,China,35.2157,113.2419
Jiaxing,China,30.747,120.756
Jiayuguan,China,39.7732,98.2882
Jieshou,China,33.257,115.3746
Jijel,Algeria,36.8167,5.75
Jimma,Ethiopia,#N/A,#N/A
Jimo,China,#N/A,#N/A
Jinan,China,36.6702,117.0207
Jinchang,China,38.5214,102.188
Jincheng,China,35.491,112.852
Jingdezhen,China,29.2917,117.1986
Jingmen,China,#N/A,#N/A
Jingzhou,China,37.6911,116.2672
Jinhua,China,29.079,119.647
Jining,China,35.4151,116.5871
Jinshi City,China,29.5,111.908
Jinzhong,China,26.3504,103.4167
Jinzhou,China,41.129,121.148
Jishou,China,#N/A,#N/A
Jiujiang,China,29.661,115.954
Jiuquan,China,#N/A,#N/A
Jiutai,China,44.1447,125.8443
Jiutepec,Mexico,18.8833,-99.1667
Jixi,China,45.295,130.969
Jiyuan,China,#N/A,#N/A
Jizzakh,Uzbekistan,#N/A,#N/A
João Pessoa,Brazil,-7.12,-34.88
Jodhpur,India,26.28,73.02
Joetsu,Japan,37.1479,138.2361
Johannesburg,South Africa,-26.2044,28.0456
Johor Bahru,Malaysia,1.4556,103.7611
Joinville,Brazil,#N/A,#N/A
Joliet,United States,41.5188,-88.1499
Jorhat,India,26.75,94.22
Jönköping,Sweden,57.7828,14.1606
Jos,Nigeria,9.9167,8.8903
Juazeiro do Norte,Brazil,-7.2,-39.3333
Juazeiro,Brazil,-9.4306,-40.5028
Juba,South Sudan,4.85,31.6
Juiz de Fora,Brazil,-21.7619,-43.3494
Juliaca,Peru,-15.4833,-70.1333
Junagadh,India,21.5222,70.4579
Jundiaí,Brazil,-23.1858,-46.8839
Jyväskylä,Finland,62.2417,25.7417
City,Country,#N/A,#N/A
Gabès,Tunisia,33.8833,10.1167
Gaborone,Botswana,-24.6581,25.9122
Gadag-Betgeri,India,#N/A,#N/A
Galați,Romania,#N/A,#N/A
Gandhidham,India,23.08,70.13
Gandhinagar,India,#N/A,#N/A
Ganganagar,India,29.92,73.88
Gangneung,South Korea,37.75,128.9
Gəncə,Azerbaijan,40.6828,46.3606
Ganzhou,China,25.831,114.933
Gaocheng,China,30.0167,100.2667
Garanhuns,Brazil,-8.8903,-36.4928
Garden Grove,United States,33.7787,-117.9601
Garland,United States,32.91,-96.6304
Garoua,Cameroon,9.3,13.4
Gary,United States,41.5905,-87.3473
Gateshead,United Kingdom,54.9556,-1.6
Gatineau,Canada,45.4833,-75.65
Gaya,India,24.75,85.01
Gaza City,Palestine,31.5069,34.456
Gaziantep,Turkey,37.0628,37.3792
Gdańsk,Poland,54.3475,18.6453
Gdynia,Poland,54.5175,18.54
Gebze,Turkey,40.8,29.4333
Geelong,Australia,-38.15,144.35
Gejiu,China,#N/A,#N/A
Geleen-Sittard,Netherlands,#N/A,#N/A
Gelsenkirchen,Germany,51.5167,7.1
General Santos City,Philippines,#N/A,#N/A
Geneva,Switzerland,46.2017,6.1469
Genova,Italy,#N/A,#N/A
George Town,Malaysia,5.4144,100.3292
Georgetown,Guyana,6.8058,-58.1508
Gera,Germany,50.8806,12.0833
Germiston,South Africa,-26.2178,28.1672
Getafe,Spain,40.3047,-3.7311
Ghardaïa,Algeria,32.4833,3.6667
Ghaziabad,India,28.67,77.42
Ghazni,Afghanistan,33.5492,68.4233
Ghent,Belgium,#N/A,#N/A
Gifu,Japan,35.4232,136.7608
Gijón,Spain,43.5333,-5.7
Gilbert,United States,33.31,-111.7463
Gingoog City,Philippines,8.82,125.1
Girardot,Colombia,4.305,-74.8017
Giresun,Turkey,40.9153,38.3894
Giza,Egypt,29.987,31.2118
Glasgow,United Kingdom,55.8611,-4.25
Glazov,Russia,58.1333,52.6667
"Glendale, Arizona",United States,33.5791,-112.2311
"Glendale, California",United States,33.5791,-112.2311
Gliwice,Poland,50.2833,18.6667
Gloucester,United Kingdom,51.8667,-2.25
Godhra,India,22.7772,73.6203
Godoy Cruz,Ecuador,-32.9167,-68.8333
Goiânia,Brazil,-16.6667,-49.25
Gojra,India,31.15,72.6833
Gold Coast,Australia,-28.0167,153.4
Goma,Democratic Republic of the Congo,-1.6794,29.2336
Gómez Palacio,Mexico,25.5611,-103.4983
Gonbad-e Qabus,Iran,#N/A,#N/A
Gondar,Ethiopia,29.5667,76.7833
Gondiya,India,#N/A,#N/A
Gongzhuling,China,43.5053,124.8224
Gorakhpur,India,26.7637,83.4039
Gorgan,Iran,36.8378,54.4414
Gorzów Wielkopolski,Poland,52.7333,15.25
Gothenburg,Sweden,57.7075,11.9675
Governador Valadares,Brazil,-18.85,-41.9333
Göttingen,Germany,51.5339,9.9356
Granada,Nicaragua,37.1781,-3.6008
Granada,Spain,37.1781,-3.6008
Grand Prairie,United States,32.6871,-97.0208
Grand Rapids,United States,42.9619,-85.6562
Gravataí,Brazil,-29.9333,-50.9833
Graz,Austria,47.0708,15.4386
Green Bay,United States,44.5148,-87.9895
Greensboro,United States,36.0956,-79.8271
Grenoble,France,45.1715,5.7224
Groningen,Netherlands,53.2189,6.5675
Grozny,Russia,#N/A,#N/A
Grudziądz,Poland,53.4875,18.755
Guadalajara,Mexico,20.6767,-103.3475
Guadalupe,Mexico,25.6775,-100.2597
Guanare,Venezuela,9.0436,-69.7489
Guanghan,China,#N/A,#N/A
Guangshui,China,31.617,113.826
Guangyuan,China,32.436,105.844
Guangzhou,China,23.13,113.26
Guantánamo,Cuba,20.1367,-75.2139
Guarapuava,Brazil,-25.3833,-51.45
Guaratinguetá,Brazil,-22.8167,-45.2278
Guarenas,Venezuela,10.4667,-66.6167
Guarujá,Brazil,-23.9936,-46.2564
Guarulhos,Brazil,-23.4628,-46.5328
Guatemala City,Guatemala,14.6133,-90.5353
Guayaquil,Ecuador,-2.19,-79.8875
Guaymas,Mexico,27.9183,-110.8933
Guaynabo,Puerto Rico,18.3832,-66.1134
Gudivada,India,16.43,80.99
Guédiawaye,Senegal,14.7833,-17.4
Guelma,Algeria,36.45,7.4333
Guelph,Canada,43.55,-80.25
Guigang,China,23.112,109.599
Guilin,China,25.275,110.296
Guiyang,China,26.647,106.63
Gujiao,China,37.907,112.176
Gujranwala,Pakistan,32.1567,74.19
Gujrat City,India,32.5739,74.0789
Gulbarga,India,17.329,76.825
Gumi,South Korea,#N/A,#N/A
Guna,India,24.65,77.32
Guntakul,India,#N/A,#N/A
Gunsan,South Korea,#N/A,#N/A
Guntur,India,16.3008,80.4428
Gurgaon,India,28.456,77.029
Guri,South Korea,37.6,127.15
Guruvayur,India,#N/A,#N/A
Guwahati,India,26.1722,91.7458
Gwalior,India,26.2124,78.1772
Gwangju,South Korea,35.1653,126.8486
Gweru,Zimbabwe,-19.4614,29.8022
Gyeongju,South Korea,#N/A,#N/A
Győr,Hungary,47.6842,17.6344
Gyumri,Armenia,40.7894,43.8475
towns,Country,#N/A,#N/A
Eastbourne,United Kingdom,50.77,0.28
Ebetsu,Japan,43.1,141.5333
Ebina,Japan,35.4464,139.3908
Ecatepec,Mexico,19.6097,-99.06
Ede,Netherlands,7.7389,4.4361
Ede,Nigeria,7.7389,4.4361
Edéa,Cameroon,3.8,10.1333
Edinburgh,United Kingdom,55.9533,-3.1892
Edirne,Turkey,41.6769,26.5556
Edmonton,Canada,53.5344,-113.4903
Eilat,Israel,29.5569,34.9517
Eindhoven,Netherlands,51.4333,5.4833
Ekibastuz,Kazakhstan,51.6667,75.3667
El Aaiún,Western Sahara,#N/A,#N/A
El Alto,Bolivia,-16.5047,-68.1633
El Eulma,Algeria,36.15,5.6833
El Jadida,Morocco,#N/A,#N/A
El Khroub,Algeria,36.2667,6.7
El Monte,United States,34.0739,-118.0291
El Oued,Algeria,33.3611,6.8606
El Paso,United States,31.8476,-106.43
El Progreso,Honduras,15.4,-87.8
Elazığ,Turkey,38.6744,39.2228
Elbląg,Poland,54.1667,19.4
Elche,Spain,38.2669,-0.6983
Eldoret,Kenya,0.5167,35.2833
Elektrostal,Russia,55.7833,38.4667
Elista,Russia,46.3167,44.2667
Elizabeth,United States,40.6658,-74.1913
Elk Grove,United States,38.4161,-121.3842
El-Mahalla El-Kubra,Egypt,#N/A,#N/A
Eluru,India,#N/A,#N/A
English Bazar,India,#N/A,#N/A
Enschede,Netherlands,52.2225,6.8925
Ensenada,Mexico,31.8578,-116.6058
Enshi,China,#N/A,#N/A
Enugu,Nigeria,6.4528,7.5111
Envigado,Colombia,6.1667,-75.5667
Erbil,Iraq,36.1912,44.0092
Erfurt,Germany,50.9781,11.0289
Erie,United States,42.1167,-80.0733
Erlangen,Germany,49.5833,11.0167
Erode,India,11.3409,77.7171
Erzincan,Turkey,39.7464,39.4914
Erzurum,Turkey,39.9086,41.2769
Escondido,United States,33.1348,-117.0723
Esenler,Turkey,41.0339,28.8903
Esfahan,Iran,32.6447,51.6675
Eskişehir,Turkey,39.7767,30.5206
Esmeraldas,Ecuador,0.9667,-79.6528
Espoo,Finland,60.2056,24.6556
Essen,Germany,51.4508,7.0131
Etawah,India,26.77,79.03
Eugene,United States,44.0564,-123.1174
Eujeongbu,South Korea,#N/A,#N/A
Evansville,United States,37.9881,-87.5341
Exeter,United Kingdom,50.7256,-3.5269
Ezhou,China,30.3914,114.8949
City,Country,#N/A,#N/A
Bab Ezzouar,Algeria,36.7217,3.1853
Babol,Iran,36.5475,52.6783
Babruysk,Belarus,53.15,29.2333
Bacău,Romania,46.5833,26.9167
Bacolod,Philippines,10.6765,122.9509
Bacoor,Philippines,14.4624,120.9645
Badajoz,Spain,38.8803,-6.9753
Badalona,Spain,41.4489,2.2461
Bafoussam,Cameroon,5.4667,10.4167
Bagé,Brazil,-31.3308,-54.1069
Baghdad,Iraq,33.3153,44.3661
Bago City,Philippines,17.3333,96.4833
Bago,Myanmar,17.3333,96.4833
Baguio,Philippines,#N/A,#N/A
Baharampur,India,24.1,88.25
Bahawalnagar,Pakistan,29.9928,73.2536
Bahawalpur,Pakistan,29.3956,71.6836
Bahía Blanca,Argentina,-38.7167,-62.2667
Bahir Dar,Ethiopia,11.6,37.3833
Bahraich,India,#N/A,#N/A
Baia Mare,Romania,47.6567,23.5719
Baicheng,China,23.903,106.619
Baidoa,Somalia,3.1167,43.65
Baise,China,#N/A,#N/A
Baishan,China,41.944,126.4147
Baiyin,China,36.5451,104.1389
Bakersfield,United States,35.3529,-119.0359
Baku,Azerbaijan,40.3953,49.8822
Balakovo,Russia,52.0333,47.7833
Balashikha,Russia,55.8167,37.9667
Baleshwar,India,#N/A,#N/A
Balıkesir,Turkey,39.6333,27.8833
Balikpapan,Indonesia,-1.2768,116.8277
Baliuag,Philippines,14.954,120.901
Bally,India,#N/A,#N/A
Bălți,Moldova,#N/A,#N/A
Baltimore,United States,39.3051,-76.6144
Balurghat,India,25.22,88.76
Bamako,Mali,12.6392,-8.0028
Bamenda,Cameroon,5.9614,10.1517
Banda Aceh,Indonesia,5.55,95.3175
Bandar Abbas,Iran,#N/A,#N/A
Bandırma,Turkey,40.35,27.9667
Bandung,Indonesia,-6.912,107.6097
Bangalore,India,12.9789,77.5917
Bangkok,Thailand,13.7525,100.4942
Bangui,Central African Republic,4.3733,18.5628
Banha,Egypt,30.4667,31.1833
Bani Suwayf,Egypt,16.1869,119.8592
Banja Luka,Bosnia and Herzegovina,44.7725,17.1925
Banjarmasin,Indonesia,-3.32,114.5925
Banjul,Gambia,13.4531,-16.5775
Bankura,India,23.25,87.07
Baoding,China,38.874,115.464
Baoji,China,#N/A,#N/A
Baoshan,China,25.112,99.161
Baotou,China,40.6213,109.9532
Barakaldo,Spain,#N/A,#N/A
Baraki,Algeria,36.6667,3.1
Baranagar,India,#N/A,#N/A
Baranovichi,Belarus,#N/A,#N/A
Barbacena,Brazil,-21.2167,-43.7667
Barcelona,Venezuela,41.3828,2.1769
Barcelona,Spain,41.3828,2.1769
Bardhaman,India,#N/A,#N/A
Bareilly,India,28.364,79.415
Bari,Italy,41.1253,16.8667
Barika,Algeria,35.3972,5.3658
Barinas,Venezuela,8.6333,-70.2
Barisal,Bangladesh,#N/A,#N/A
Barnaul,Russia,53.3486,83.7764
Barquisimeto,Venezuela,10.0636,-69.3347
Barra Mansa,Brazil,-22.5439,-44.1708
Barrackpur,India,#N/A,#N/A
Barrancabermeja,Colombia,7.0667,-73.85
Barranquilla,Colombia,10.9833,-74.8019
Barreiras,Brazil,-12.1483,-44.9925
Barretos,Brazil,-20.5569,-48.5678
Barrie,Canada,44.3711,-79.6769
Barueri,Brazil,-23.5111,-46.8764
Baruta,Venezuela,10.4322,-66.8739
Barysaw,Belarus,#N/A,#N/A
Basel,Switzerland,47.5547,7.5906
Basirhat,India,22.6572,88.8942
Basra,Iraq,#N/A,#N/A
Bat Yam,Israel,32.0167,34.75
Batala,India,31.8186,75.2028
Batam,Indonesia,#N/A,#N/A
Batangas City,Philippines,13.83,121
Bataysk,Russia,47.1667,39.7333
Bath,United Kingdom,51.38,-2.36
Bathinda,India,#N/A,#N/A
Batman,Turkey,37.887,41.132
Batna,Algeria,35.55,6.1667
Baton Rouge,United States,30.442,-91.1311
Battambang,Cambodia,13.1,103.2
Batumi,Georgia,41.6458,41.6417
Bauru,Brazil,-22.315,-49.0608
Bayambang,Philippines,#N/A,#N/A
Bayamo,Cuba,20.3817,-76.6428
Bayamón,Puerto Rico,18.3794,-66.1635
Bayannur,China,#N/A,#N/A
Bayawan,Philippines,9.37,122.8
Baybay,Philippines,10.68,124.8
Bazhou,China,31.868,106.748
Beau-Bassin,Mauritius,#N/A,#N/A
Beaumont,United States,30.0849,-94.1451
Beauvais,France,49.4303,2.0952
Beawar,India,26.1,74.32
Béchar,Algeria,31.6167,-2.2167
Beed,India,#N/A,#N/A
Beersheba,Israel,31.2589,34.7997
Bei'an,China,#N/A,#N/A
Beihai,China,21.481,109.12
Beijing,China,39.9067,116.3975
Beipiao,China,41.801,120.771
Beirut,Lebanon,33.8983,35.5057
Béjaïa,Algeria,#N/A,#N/A
Belém,Brazil,-1.4558,-48.5039
Belfast,United Kingdom,54.5964,-5.93
Belford Roxo,Brazil,#N/A,#N/A
Belgaum,India,15.85,74.5
Belgorod,Russia,50.6,36.6
Belgrade,Serbia,44.82,20.46
Bellary,India,15.1,76.9167
Bellevue,United States,47.5951,-122.1535
Bello,Colombia,6.3333,-75.5667
Belo Horizonte,Brazil,-19.9167,-43.9333
Bengbu,China,32.917,117.389
Benghazi,Libya,32.1167,20.0667
Benguela,Angola,-12.55,13.4167
Beni Mellal,Morocco,0.5,29.4667
Benito Juárez,Mexico,20.8833,-98.2
Benoni,South Africa,-26.1883,28.3206
Benxi,China,41.4868,123.685
Beppu,Japan,33.2847,131.4914
Berbera,Somalia,10.4356,45.0164
Berdyansk,Ukraine,#N/A,#N/A
Berezniki,Russia,59.4167,56.7833
Bergamo,Italy,45.695,9.67
Bergen,Norway,60.3894,5.33
Bergisch Gladbach,Germany,50.9918,7.1303
Berhampur,India,#N/A,#N/A
Berkeley,United States,37.8722,-122.276
Berlin,Germany,52.52,13.405
Bern,Switzerland,46.9481,7.4475
Besançon,France,47.24,6.02
Betim,Brazil,-19.9678,-44.1978
Bettiah,India,26.8014,84.5028
Bhadravati,India,13.8485,75.705
Bhagalpur,India,25.25,87
Bhalwal,Pakistan,32.2656,72.8994
Bharatpur,India,27.6833,84.4333
Bharatpur,Nepal,27.6833,84.4333
Bharuch,India,21.712,72.993
Bhatpara,India,22.87,88.41
Bhavnagar,India,21.76,72.15
Bhilai,India,21.21,81.38
Bhilwara,India,25.35,74.63
Bhimavaram,India,16.543,81.523
Bhind,India,26.5587,78.7871
Bhiwandi,India,19.2967,73.0631
Bhiwani,India,28.78,76.13
Bhopal,India,23.2599,77.4126
Bhubaneswar,India,#N/A,#N/A
Bhuj,India,23.25,69.67
Bhusawal,India,#N/A,#N/A
Białystok,Poland,53.1353,23.1456
Bidar,India,17.912,77.52
Bielefeld,Germany,52.0211,8.5347
Bielsko-Biała,Poland,49.8225,19.0444
Bihar Sharif,India,25.197,85.518
Bijapur,India,16.83,75.71
Bikaner,India,28.0181,73.3169
Bila Tserkva,Ukraine,49.7989,30.1153
Bilaspur,India,31.33,76.75
Bilbao,Spain,43.2569,-2.9236
Billings,United States,45.7891,-108.5526
Biñan,Philippines,14.33,121.08
Binangonan,Philippines,14.4514,121.1919
Binzhou,China,37.383,117.971
Biratnagar,Nepal,26.4542,87.2797
Birjand,Iran,32.8744,59.2161
Birmingham,United Kingdom,52.48,-1.9025
Birmingham,United States,52.48,-1.9025
Bishkek,Kyrgyzstan,42.8747,74.6122
Bislig,Philippines,8.2133,126.3161
Biskra,Algeria,34.85,5.7333
Bissau,Guinea-Bissau,11.85,-15.5667
Biysk,Russia,52.5333,85.2167
Bizerte,Tunisia,37.2778,9.8639
Blackburn,United Kingdom,53.748,-2.482
Blackpool,United Kingdom,53.8142,-3.0503
Blagoveshchensk,Russia,50.25,127.5333
Blantyre,Malawi,-15.7861,35.0058
Blida,Algeria,36.4686,2.8319
Bloemfontein,South Africa,-29.1167,26.2167
Blumenau,Brazil,-26.9333,-49.05
Bnei Brak,Israel,#N/A,#N/A
Boa Vista,Brazil,2.8194,-60.6714
Bobo-Dioulasso,Burkina Faso,11.1833,-4.2833
Bocaue,Philippines,14.8,120.93
Bochum,Germany,51.4819,7.2158
Bogor,Indonesia,-6.5966,106.7972
Bogota,Colombia,40.8751,-74.0293
Bogra,Bangladesh,24.85,89.3667
Boise,United States,43.6005,-116.2308
Bojnord,Iran,#N/A,#N/A
Bokaro Steel City,India,23.67,86.15
Boksburg,South Africa,-26.2125,28.2625
Bole,China,44.8539,82.0514
Bologna,Italy,44.4939,11.3428
Bolton,United Kingdom,53.578,-2.429
Boma,Democratic Republic of the Congo,-5.85,13.05
Bonn,Germany,50.7333,7.1
Bordeaux,France,44.84,-0.58
Bordj Bou Arréridj,Algeria,#N/A,#N/A
Bordj El Kiffan,Algeria,36.7375,3.1931
Borujerd,Iran,33.9111,48.7522
Bosaso,Somalia,#N/A,#N/A
Boston,United States,42.3188,-71.0852
Botoșani,Romania,#N/A,#N/A
Botou,China,38.0833,116.5833
Botshabelo,South Africa,#N/A,#N/A
Bottrop,Germany,51.5247,6.9228
Botucatu,Brazil,-22.8858,-48.445
Bou Saâda,Algeria,35.2083,4.1739
Bouaké,Ivory Coast,7.6833,-5.0167
Boulder,United States,40.0248,-105.2524
Boulogne-Billancourt,France,48.8352,2.2409
Bourg-en-Bresse,France,46.2056,5.2289
Bournemouth,United Kingdom,50.72,-1.88
Bozhou,China,33.8626,115.7742
Bradford,United Kingdom,53.8,-1.75
Braga,Portugal,41.5503,-8.42
Bragança Paulista,Brazil,-22.9531,-46.5422
Brăila,Romania,45.2692,27.9575
Brampton,Canada,43.6833,-79.7667
Brasília,Brazil,-15.7939,-47.8828
Brașov,Romania,#N/A,#N/A
Bratislava,Slovakia,48.1439,17.1097
Bratsk,Russia,56.1167,101.6
Braunschweig,Germany,52.2667,10.5167
Brazzaville,Republic of the Congo,-4.2694,15.2711
Breda,Netherlands,51.5889,4.7758
Bremen,Germany,53.0758,8.8072
Bremerhaven,Germany,53.55,8.5833
Brescia,Italy,45.5417,10.2167
Brest,Belarus,52.1347,23.6569
Brest,France,52.1347,23.6569
Bridgeport,United States,41.1918,-73.1954
Brighton,United Kingdom,50.8208,-0.1375
Brisbane,Australia,-27.4678,153.0281
Bristol,United Kingdom,51.4536,-2.5975
Brno,Czech Republic,49.1925,16.6083
Brownsville,United States,25.9975,-97.458
Bruges,Belgium,51.2089,3.2242
Brussels,Belgium,50.8467,4.3525
Bryansk,Russia,53.2333,34.3667
Bucaramanga,Colombia,7.1333,-73
Bucharest,Romania,44.4325,26.1039
Bucheon,South Korea,37.5,126.7833
Budapest,Hungary,47.4925,19.0514
Budaun,India,28.05,79.12
Buenaventura,Colombia,3.8772,-77.0267
Buenos Aires,Argentina,-34.6033,-58.3817
Buffalo,United States,42.9018,-78.8487
Buga,Colombia,#N/A,#N/A
Bujumbura,Burundi,-3.3833,29.3667
Bukan,Iran,36.515,46.2075
Bukavu,Democratic Republic of the Congo,-2.5,28.8667
Bukhara,Uzbekistan,39.7667,64.4231
Bulandshahr,India,28.4069,77.8497
Bulawayo,Zimbabwe,-20.17,28.58
Buôn Ma Thuột,Vietnam,12.6667,108.05
Burao,Somalia,#N/A,#N/A
Burbank,United States,34.1879,-118.3235
Burewala,Pakistan,#N/A,#N/A
Burgas,Bulgaria,42.503,27.4702
Burgos,Spain,42.35,-3.7067
Burhanpur,India,21.3114,76.2289
Burlington,Canada,43.3167,-79.8
Burnaby,Canada,49.2667,-122.9667
Bursa,Turkey,40.1833,29.05
Bury,United Kingdom,53.593,-2.298
Busan,South Korea,35.18,129.075
Bushehr,Iran,#N/A,#N/A
Butuan,Philippines,8.948,125.543
Buzău,Romania,45.1531,26.8208
Bydgoszcz,Poland,53.1219,18.0003
Bytom,Poland,50.3483,18.9156
Butwal,Nepal,27.7,83.466
City,Country,#N/A,#N/A
Iaşi,Romania,47.1622,27.5889
Ibadan,Nigeria,7.3964,3.9167
Ibagué,Colombia,4.4333,-75.2333
Ibaraki,Japan,34.8164,135.5686
Ibarra,Ecuador,0.3627,-78.1307
Ibirité,Brazil,-20.0219,-44.0589
Ica,Peru,-14.0667,-75.7333
Ichalakaranji,India,#N/A,#N/A
Ichihara,Japan,35.4981,140.1154
Ichikawa,Japan,35.7219,139.9311
Ichinomiya,Japan,35.3039,136.8031
Ife,Nigeria,#N/A,#N/A
Iida,Japan,35.515,137.8214
Ikeda,Japan,34.8217,135.4286
Ikere-Ekiti,Nigeria,#N/A,#N/A
Ikoma,Japan,34.7,135.7
Iksan,South Korea,35.9439,126.9544
Ila,Nigeria,#N/A,#N/A
Ilagan,Philippines,17.1489,121.8894
Ilam,Iran,#N/A,#N/A
Ilesa,Nigeria,7.6167,4.7167
Ilhéus,Brazil,-14.7889,-39.0489
Iligan,Philippines,8.23,124.25
Iloilo City,Philippines,10.72,122.57
Ilopango,El Salvador,13.7,-89.1167
Ilorin,Nigeria,8.5,4.55
Imabari,Japan,34.0667,133
Imbaba,Egypt,#N/A,#N/A
Imperatriz,Brazil,-5.5333,-47.4833
Imphal,India,24.8074,93.9384
Inazawa,Japan,35.2647,136.7969
Inchon,South Korea,#N/A,#N/A
Indaiatuba,Brazil,-23.0903,-47.2181
Independence,United States,39.0871,-94.3501
Indianapolis,United States,39.7771,-86.1458
Indore,India,22.7167,75.8472
Inegöl,Turkey,#N/A,#N/A
Inglewood,United States,33.9566,-118.3444
Ingolstadt,Germany,48.7631,11.425
Innsbruck,Austria,47.2683,11.3933
Ipatinga,Brazil,-19.5,-42.5333
Ipoh,Malaysia,4.5972,101.075
Ipswich,United Kingdom,-27.6144,152.7608
Iquique,Chile,-20.2167,-70.15
Iquitos,Peru,-3.75,-73.25
Irapuato,Mexico,20.6667,-101.35
Irbid,Jordan,32.55,35.85
Iriga,Philippines,#N/A,#N/A
Irkutsk,Russia,52.2833,104.2833
Iruma,Japan,35.8358,139.3911
Irvine,United States,33.6772,-117.7738
Irving,United States,32.8583,-96.9702
Ise,Japan,34.4833,136.7167
Isesaki,Japan,36.3114,139.1968
Ishinomaki,Japan,#N/A,#N/A
İskenderun,Turkey,36.5817,36.165
Islam Shahr,Iran,#N/A,#N/A
Islamabad,Pakistan,33.6931,73.0639
Ismaïlia,Egypt,#N/A,#N/A
Isparta,Turkey,37.7647,30.5567
İstanbul,Turkey,41.0136,28.955
Itaboraí,Brazil,-22.7439,-42.8589
Itabuna,Brazil,-14.7858,-39.28
Itagüí,Colombia,6.1667,-75.6167
Itaituba,Brazil,-4.2758,-55.9839
Itajaí,Brazil,-26.9,-48.6667
Itami,Japan,34.7833,135.4
Itapecerica da Serra,Brazil,-23.7172,-46.8494
Itapetininga,Brazil,-23.5917,-48.0531
Itapevi,Brazil,-23.5489,-46.9342
Itaquaquecetuba,Brazil,-23.4864,-46.3486
Itu,Brazil,-23.2642,-47.2992
Ivano-Frankivsk,Ukraine,48.9228,24.7106
Ivanovo,Russia,56.9967,40.9819
"Iwaki, Fukushima",Japan,37.0505,140.8877
Iwakuni,Japan,34.1664,132.2189
Iwatsuki,Japan,#N/A,#N/A
Iwo,Nigeria,7.6333,4.1833
Ixtapaluca,Mexico,19.3186,-98.8822
Izhevsk,Russia,56.8333,53.1833
İzmir,Turkey,38.42,27.14
İzmit,Turkey,#N/A,#N/A
Izumi,Japan,32.0833,130.35
City,Country,#N/A,#N/A
Ha Long,Vietnam,#N/A,#N/A
Haarlem,Netherlands,52.3833,4.6333
Huis ter Heide,Netherlands,#N/A,#N/A
Habikino,Japan,34.55,135.6
Habra,India,22.83,88.63
Hachinohe,Japan,40.5123,141.4884
Hachiōji,Japan,35.6664,139.316
Hadano,Japan,35.3667,139.2167
Haeju,North Korea,38.0333,125.7167
Hafizabad,Pakistan,32.0714,73.6878
Hagen,Germany,51.3667,7.4833
Haicheng,China,40.8824,122.6852
Haifa,Israel,32.8192,34.9992
Haikou,China,20.0186,110.3488
Hailun,China,47.4667,126.9667
Haining City,China,#N/A,#N/A
Haiphong,Vietnam,20.8651,106.6838
Hakodate,Japan,41.7686,140.7289
Hakone,Japan,35.1894,139.0247
Haldia,India,22.0667,88.0698
Haldwani-cum-Kathgodam,India,#N/A,#N/A
Halifax,Canada,44.6475,-63.5906
Halle,Germany,51.4828,11.9697
Hama,Syria,#N/A,#N/A
Hamadan,Iran,34.8064,48.5161
Hamamatsu,Japan,34.7108,137.7275
Hamburg,Germany,53.55,10
Hamhung,North Korea,39.9167,127.5333
Hami City,China,#N/A,#N/A
Hamilton,New Zealand,43.2567,-79.8692
Hamilton,Canada,43.2567,-79.8692
Hamm,Germany,51.6667,7.8167
Hanam,South Korea,37.5167,127.2
Hancheng,China,35.4667,110.4333
Handa,Japan,34.8919,136.9381
Handan,China,36.601,114.487
Hangzhou,China,30.267,120.153
Hanoi,Vietnam,21,105.85
Hanover,Germany,39.8118,-76.9836
Hanzhong,China,33.0664,107.0232
Haora,India,22.58,88.3294
Hapur,India,28.7309,77.7757
Harare,Zimbabwe,-17.8292,31.0522
Harbin,China,45.7576,126.6409
